SchoolAddressId,Street,Number,Locality,AddressLatitude,AddressLongitude
1,,837,Agrişu Mare,,
2,Sat Mândruloc,153,Vladimirescu,46.144684,21.4624123
3,Mitropolit Ivireanu Antim,10,Piteşti,44.8637527,24.8419665
4,Calea Timișorii,88,Arad,46.1490275,21.3213145
5,Nicolae Bălcescu,5,Bacău,46.5680001,26.9100021
6,Busuioc,19,Arad,46.1753067,21.3528302
7,Principală,33A,Simeria Veche,45.8652384,22.9858976
8,Calugareni,1 BIS,Drobeta-Turnu Severin,44.6351428,22.6529656
9,Austrului,37,Bucureşti Sectorul 2,44.4359293,26.1234874
10,Calea Bucovinei,33,Câmpulung Moldovenesc,47.52943510000001,25.5596325
11,Plopilor,16,Sibiu,45.8002045,24.1495439
12,Predeal,20,Focşani,45.7019464,27.1754065
13,Corabia,57-59,Bucureşti Sectorul 2,44.4584023,26.1351612
14,Tudor Vladimirescu,39,Alba Iulia,46.07687989999999,23.5801035
15,8 Martie,7,Baia Mare,47.6646687,23.6102712
16,Tisei,5,Sighetu Marmaţiei,47.9354441,23.8955145
17,22 Decembrie,30,Vişeu De Sus,47.7076758,24.4301805
18,Cuza Voda,56,Focşani,45.706064,27.192904
19,Principală,3,Măicăneşti,45.50163939999999,27.4898353
20,Principală,2,Mihălceni,45.963694,26.9688437
21,Dr. Dimitrie Gerota,3,Craiova,44.3005427,23.7914849
22,Piata Eroilor,31,Târgu Lăpuş,47.4539688,23.8630476
23,Mihail Sadoveanu,1,Miercurea Ciuc,46.3592348,25.7991531
24,Sos. Rm.Sarat,80,Brăila,45.2710762,27.9379417
25,Libertății,1 BIS,Alexandria,43.97929999999999,25.313665
26,Tineretului,7,Reşiţa,45.3223825,21.8759892
27,Grigore Silași,5,Beclean,47.1812017,24.1832077
28,Republicii,33,Oradea,47.0632759,21.9376924
29,Aradului,25,Salonta,46.8039513,21.6495293
30,Kazinczy Ferenc,5,Valea Lui Mihai,47.51465719999999,22.1266951
31,Spitalului,8,Caransebeş,45.4206422,22.2136691
32,Tineretului,1,Bocşa,45.37815140000001,21.7281739
33,Principală,752,Filipeştii De Târg,45.0468046,25.7701465
34,Mihail Kogălniceanu,25,Vaslui,46.642635,27.7281225
35,Menumorut,41,Oradea,47.0659818,21.9279885
36,Tudor Vladimirescu,32,Dumbrăveni,46.22372319999999,24.5724797
37,Filaturii,1,Vaslui,46.6560475,27.7341954
38,Cartier Unirea,264,Bistriţa,47.1392617,24.4890979
39,Crișan,3,Marghita,47.3471955,22.3403307
40,Horticolei,56,Buzău,45.14512,26.84346
41,Micsunelelor,29,Râmnicu Sărat,45.3911157,27.0550537
42,Vasile Nașcu,47,Năsăud,47.2841812,24.410692
43,Popa Petre,31,Bucureşti Sectorul 2,44.441212,26.115431
44,Henri Coanda,17,Bacău,46.5300683,26.9177806
45,Filarmonicii,18,Sibiu,45.7959308,24.1553006
46,Petricica,1,Comăneşti,46.425097,26.443798
47,Şaguna Andrei,8,Sibiu,45.7929277,24.1466376
48,Castelului,12,Reghin,46.7710931,24.700762
49,Alba Iulia,20,Bistriţa,47.1263156,24.4927579
50,Făgăraș,1,Ploieşti,44.9286194,26.0497868
51,Roman Ciorogariu,48,Oradea,47.0640771,21.9287154
52,Principală,40,Popeşti,44.9613137,24.3403582
53,Toamnei,2BIS,Bistriţa,47.1277409,24.4909433
54,Cantacuzino Gheorghe Grigore,328,Ploieşti,44.9386974,25.9915627
55,Vasile Alecsandri,3,Negreşti,46.839669,27.464693
56,Ocnei,2,Breaza De Sus,45.1903148,25.6555351
57,Berceni,42A,Vălenii De Munte,45.177502,26.0374077
58,Traian Lalescu,3,Oradea,47.0730131,21.9308739
59,Unirii,38,Tileagd,47.07229960000001,22.1894279
60,Primaverii,51,Reşiţa,45.29204499999999,21.942925
61,Oltului,59,Rosiori De Vede,44.1138281,24.9806888
62,Parcului,1-3,Gura Humorului,47.5523313,25.8963353
63,Cavalerului,1B,Ştefăneşti,44.8679175,24.8885474
64,Victoriei,5,Curtea De Argeş,45.12812640000001,24.6748734
65,Negru Vodă,87,Câmpulung,45.264049,25.039169
66,Morii,7A,Costeşti,44.6647648,24.8799907
67,Calea Unirii,7-9,Suceava,47.6695602,26.274917
68,Garii,693,Turnu Roşu,45.6424067,24.2954326
69,B.St.Delavrancea,55,Constanţa,44.2094642,28.6074123
70,Fagetului,158,Lugoj,45.6968094,21.9286888
71,1 Decembrie 1918,68,Piatra-Neamţ,46.94748380000001,26.3854811
72,Căpitan Ignat,10,Arad,46.1720311,21.3028201
73,Plopului,16bis,Balş,44.3526745,24.0962331
74,Principală,121,Bilbor,47.0656143,25.4864041
75,13 Decembrie,125,Braşov,45.6691969,25.608841
76,Dn1A,,Săcele,,
77,Aviator Bădescu,3-5,Cluj-Napoca,46.7669742,23.5958883
78,Mihail Sadoveanu,5,Recaş,45.8011607,21.5119138
79,Bucegi,2,Timişoara,45.74417589999999,21.2437293
80,Aurel Vlaicu,26 BIS,Braşov,45.6602632,25.5978209
81,Semănătorului,8,Constanţa,44.1910922,28.63061
82,General Ion Dragalina,2,Timişoara,45.7431691,21.2128889
83,Combinatului,3,Făgăraş,45.8194879,24.9668183
84,Nicolae Măndoi,17,Constanţa,44.1720768,28.6014666
85,Bucureşti,32,Cluj-Napoca,46.7799029,23.6011896
86,Prof. Dumitru Mărtinaș,11,Roman,46.9396874,26.9049295
87,1 Decembrie 1918,32,Tîrgu Mureş,46.53860239999999,24.5663417
88,Marasti,8,Tîrgu Mureş,46.55041780000001,24.5625351
89,Principală,69,Ocland,44.8356564,25.853245
90,Calea Lui Traian,128,Băbeni,44.9666188,24.2420495
91,Veniamin Costachi,5,Târgu Neamţ,47.20754729999999,26.3723863
92,Titu Maiorescu,2-6,Timişoara,45.7556361,21.2516657
93,Principală,582,Periş,44.6736095,25.9906072
94,Bulevardul 1848,23,Hunedoara,45.7500968,22.9119047
95,Alexandru Ioan Cuza,8,Satu Mare,47.7913017,22.8773807
96,Crisan,4,Zalău,47.184225,23.054708
97,Nicolae Bălcescu,19,Şimleu Silvaniei,47.22897409999999,22.7912802
98,Dumbrava,34,Târgu Jiu,45.0670939,23.2911052
99,Salcamilor,2,Victoria,45.7286951,24.7047302
100,Banatului,2,Sibiu,45.7915859,24.1456576
101,M. Kogălniceanu,17,Huşi,46.6750364,28.0584584
102,M. Sadoveanu,41,Iaşi,47.1651167,27.5975854
103,Calarasilor,108,Tîrgu Mureş,46.551907,24.553814
104,Bucovina,41,Gura Humorului,47.5532397,25.8984675
105,Putnei,236,Rădăuţi,47.8546673,25.8918357
106,Sos. Combinatului,3,Făgăraş,45.8194879,24.9668183
107,Decebal,15,Constanţa,44.1831036,28.6486805
108,B-Dul Galati,3,Galaţi,45.40410019999999,28.0173097
109,Bobâlna,44,Ploieşti,44.92992419999999,26.0242958
110,Curtea Domneasca,8,Suceava,47.6456249,26.2617204
111,Petöfi Sándor,2-4,Baia Mare,47.6646059,23.5756336
112,B-Dul Revolutiei,20A,Arad,46.18445149999999,21.324088
113,Domneasca,169,Galaţi,45.455564,28.048587
114,Calea Aradului,119,Timişoara,45.7846495,21.2172986
115,Paris,60,Cluj-Napoca,46.7791202,23.6003809
116,Taberei,3,Cluj-Napoca,46.76185,23.5526975
117,Lacul Tei,122-124,Bucureşti Sectorul 2,44.4633777,26.1246001
118,Armoniei,6,Braşov,45.6589134,25.6036215
119,Aurelian,2,Braşov,45.64705499999999,25.619734
120,Calea Mărășești,157,Bacău,46.55506219999999,26.9142979
121,14 Noiembrie,24,Tulcea,45.18071339999999,28.8064398
122,Republicii,226,Piteşti,44.84410949999999,24.892064
123,Sarariei,35,Iaşi,47.1669924,27.5887311
124,Traian,165,Bucureşti Sectorul 2,44.4381774,26.1202664
125,Dacia,1,Reşiţa,45.32556599999999,21.874541
126,Traian,1,Vaslui,46.63290380000001,27.7285829
127,P-Ța G. Enescu,2,Arad,46.1743555,21.3191731
128,1 Decembrie 1918,88,Călăraşi,44.1892933,27.3366066
129,Peştera Dâmbovicioara,12,Bucureşti Sectorul 6,44.4359469,26.0315415
130,Viitorului,32,Tulcea,45.1876932,28.7780086
131,Prof. Leca Morariu,17 A,Suceava,47.6439151,26.2480932
132,Octavian Goga,11,Alba Iulia,46.0661141,23.57726
133,Alexandru Vlahuta,1 bis,Hunedoara,45.7580132,22.9150376
134,Str.Corbului,7C,Timişoara,45.7414983,21.2197966
135,Oituz,31,Sibiu,45.7838439,24.1505507
136,Brestei,10,Craiova,44.321278,23.7892997
137,Henri Coanda,1,Satu Mare,47.7914754,22.8919568
138,Moşilor,152,Bucureşti Sectorul 2,44.4370498,26.1131486
139,Independenţei,1A,Petroşani,45.4051189,23.3751941
140,Dimitrie Bolintineanu,16,Brăila,45.2740057,27.977084
141,9 Mai,104,Bacău,46.5698405,26.9160813
142,Domnească,223,Târgovişte,44.928642,25.4637889
143,Isac Emil,19,Cluj-Napoca,46.7707908,23.5846999
144,Oituz,20,Mangalia,43.8117791,28.5800229
145,Teiuleanu,1,Piteşti,44.854557,24.8780497
146,Garii,25,Focşani,45.6998719,27.1722015
147,Calea Lui Traian,91,Râmnicu Vâlcea,45.095206,24.3608234
148,George Emil Palade,15,Buzău,45.1509077,26.8229095
149,Progresului,45,Baia Mare,47.6525217,23.5731509
150,Bucovina,33,Botoşani,47.7348461,26.6592633
151,Armatei Române,1/F,Oradea,47.048959,21.9215906
152,1 Mai,15,Cavnic,47.6462166,23.8193582
153,Calimanului,1,Tîrgu Mureş,46.5410291,24.5725516
154,Dacia,34,Bucureşti Sectorul 1,44.4464483,26.100819
155,Viilor,38,Bucureşti Sectorul 5,44.4128379,26.0861008
156,Str. Sf.Andrei,70,Iaşi,47.1594512,27.5823036
157,Strungarilor,31,Galaţi,45.4162295,28.0153152
158,Rudului,24,Ploieşti,44.9361915,26.0201778
159,Tudor Vladimirescu,124,Târgu Jiu,45.0384036,23.2860312
160,Agriculturii,27,Turda,46.5819808,23.7858505
161,Str. Prof. Sergiu Purece,10,Râmnicu Vâlcea,45.0996753,24.3693179
162,Principală,5,Măneciu-Ungureni,44.8790513,25.3932891
163,Cihoschi Stanislav,17,Bucureşti Sectorul 1,44.4494505,26.0972953
164,Alpiniștilor,1,Buşteni,45.4147113,25.5335002
165,Mihai Eminescu,35,Bacău,46.5649072,26.8984774
166,Traian,7,Ineu,46.4287528,21.8400728
167,Bucuresti,40,Sinaia,45.3285312,25.5639629
168,Cuza Voda,47,Focşani,45.7030745,27.1906895
169,Saturn,26,Galaţi,45.4230578,28.0267258
170,G-Ral Praporgescu,19,Râmnicu Vâlcea,45.1084471,24.3646084
171,Nicolae Iorga,19,Botoşani,47.7387284,26.6647396
172,Oituz,3,Câmpeni,46.3624146,23.0458129
173,Prelungirea Bucuresti,133-147,Călăraşi,44.2091765,27.308207
174,Bethlen Gabor,1,Aiud,46.3111133,23.7174546
175,Costache Racovita,20,Tecuci,45.8466197,27.4274136
176,Ion Maiorescu,2,Craiova,44.31849099999999,23.7920483
177,Brailei,134,Galaţi,45.4297986,28.0333861
178,Victoriei,15,Cugir,45.8432496,23.3630489
179,1 Decembrie 1918,107,Tecuci,45.8356952,27.4360016
180,Henri Coanda,21,Râmnicu Vâlcea,45.1154476,24.368056
181,Mihai Viteazul,14,Sighetu Marmaţiei,47.9307951,23.8869789
182,Mihai Viteazu,12,Craiova,44.3199532,23.7929017
183,Libertatii,12,Adjud,46.0945666,27.1831392
184,Stirbei Voda,5,Craiova,44.3130959,23.7940665
185,Gheorghe Sincai,25,Baia Mare,47.657873,23.5773365
186,Str. Aleea Scolii,1,Drăgăşani,44.6595436,24.25979
187,Gr Ghica,41,Dorohoi,47.9549207,26.4012087
188,1 Decembrie 1918,11,Alba Iulia,46.0665661,23.5638677
189,Simion Bărnuţiu,2,Blaj,46.1789187,23.9266783
190,Mihai Eminescu,1,Satu Mare,47.791184,22.8767806
191,Călugăreni,49,Sebeş,45.9526793,23.5698507
192,Culturii,7,Baia Mare,47.6551206,23.5718434
193,Octav Onicescu,7,Botoşani,47.7433574,26.6489086
194,Brailei,161B,Galaţi,45.4279301,28.0333062
195,Revoluţiei 1989,25,Alba Iulia,46.0700508,23.5583626
196,Vasile Alecsandri,91,Craiova,44.320698,23.814305
197,Tineretului,157,Olteniţa,44.0835848,26.6372989
198,Doljului,12,Craiova,44.327993,23.8031891
199,22 Decembrie 1989,5,Sighetu Marmaţiei,47.9288939,23.8826023
200,Iorga Nicolae,7,Ploieşti,44.9325173,26.029292
201,Timotei Cipariu,5,Focşani,45.6919522,27.1804035
202,Amaradia,72,Craiova,44.3325664,23.7947959
203,B-Dul Victoriei,12,Tecuci,45.84213399999999,27.429517
204,Ecaterina Varga,10,Aiud,46.30592,23.71939
205,Cezar Bolliac,15,Focşani,45.69771249999999,27.1924806
206,N.Balcescu,41,Galaţi,45.4411369,28.0523001
207,Culturii,2,Baia Mare,47.65800309999999,23.5696258
208,Carpați,27,Alexandria,43.9678165,25.3359407
209,Trei Ierarhi,10,Ploieşti,44.94072,26.0171288
210,Vasile Pârvan,1,Piteşti,44.8406496,24.8780252
211,Bernady Gyorgy,12,Tîrgu Mureş,46.5459551,24.5685481
212,Tudor Vladimirescu,13,Râmnicu Sărat,45.3776912,27.0476122
213,Călăraşilor,307A,Brăila,45.2502661,27.954933
214,Bd. Revolutiei,15A,Timişoara,45.7557979,21.2363299
215,Republicii,9-11,Rosiori De Vede,44.1139758,24.9850096
216,Republicii,26,Bistriţa,47.1326033,24.4911811
217,1 Mai,10,Dej,47.14152139999999,23.8784873
218,Sir Andrei Saguna,1,Braşov,45.63839249999999,25.5840408
219,Dupa Ziduri,3,Braşov,45.6447955,25.5884744
220,Ist. Roth Stephan Ludwig,1,Bucureşti Sectorul 1,44.4658492,26.0582349
221,Lucian Blaga,6,Ştei,46.5386066,22.4631862
222,Garii,1,Buzău,45.1485403,26.8248704
223,Bv. 16 Decembrie 1989,26,Timişoara,45.7444727,21.2136054
224,Olari,29-31,Bucureşti Sectorul 2,44.4398664,26.1182554
225,Alexandru Cel Bun,19,Piatra-Neamţ,46.9344891,26.3650586
226,Viitorului,60,Bucureşti Sectorul 2,44.4454576,26.1128451
227,Calea Moldovei,233,Bacău,46.6061518,26.8999392
228,C.D. Loga,16,Caransebeş,45.4147881,22.2194994
229,Locotenent Popescu Pârvan,58,Târgovişte,44.9293155,25.4518809
230,Bd.C.D.Loga,37,Timişoara,45.7529158,21.2344944
231,Costache Negri,39,Târgu Ocna,46.2794314,26.6145047
232,Toma Cozma,4,Iaşi,47.1732914,27.5708858
233,Mihail Kogălniceanu,11,Huşi,46.6751792,28.0582634
234,Razboieni,24,Bacău,46.5638613,26.9096684
235,Cuza Voda,29,Iaşi,47.164401,27.585508
236,Principatele Unite,63,Bucureşti Sectorul 4,44.4225909,26.0968684
237,Alexandru Lăpuşneanu,11,Constanţa,44.18324570000001,28.6341761
238,Slatinioara,10,Petroşani,45.4124916,23.3797586
239,Calea Bucuresti,75,Braşov,45.6442158,25.6246318
240,Mihai Viteazu,12,Piatra-Neamţ,46.93699720000001,26.3866512
241,Zorilor,17,Suceava,47.6404758,26.2393484
242,Arh. Mincu Ion,10,Bucureşti Sectorul 1,44.458924,26.081504
243,Manu Gheorghe,30,Bucureşti Sectorul 1,44.447747,26.0861583
244,1 Decembrie 1918,22,Deva,45.88401529999999,22.9023861
245,Str. Mihai Viteazu,34,Reşiţa,45.2936347,21.9010408
246,Victor Babes,12,Oneşti,46.25370969999999,26.7772286
247,Negru Vodă,66,Câmpulung,45.2642986,25.0407924
248,Doamna Stanca,14,Făgăraş,45.8428207,24.964123
249,Stefan Cel Mare,5,Satu Mare,47.7946678,22.8737313
250,Bihorului,3,Braşov,45.6540727,25.6090933
251,Liceului,3,Câmpulung Moldovenesc,47.5282752,25.554382
252,Str. 1 Decembrie 1918,25,Târgu Jiu,45.0281055,23.2708284
253,Lunga,198,Braşov,45.6592401,25.5802597
254,Orly,37,Drobeta-Turnu Severin,44.6371045,22.6523065
255,Peştera Scărişoara,1,Bucureşti Sectorul 6,44.4176755,26.0247626
256,Dragalina,6,Arad,46.1734926,21.3192421
257,Spiru Haret,3-5,Oradea,47.05458369999999,21.9382514
258,Mihai Bravu,169,Bucureşti Sectorul 2,44.4459031,26.1261199
259,Kogălniceanu Mihail,9,Cluj-Napoca,46.7680094,23.594216
260,Nicolina,4,Iaşi,47.1490915,27.5851234
261,Calea Bucovinei,5,Rădăuţi,47.84147429999999,25.924231
262,George Bacovia,45,Bacău,46.5693091,26.9061142
263,Oastei,1,Iaşi,47.179607,27.57004
264,Isac Emil,10,Cluj-Napoca,46.7702746,23.5852353
265,Avram Iancu,70-72,Cluj-Napoca,46.7672295,23.5971914
266,Str Margaretei,3,Motru,44.8057914,22.9669183
267,Grănicerilor,2,Năsăud,47.2847269,24.404094
268,Nicolae Bălcescu,11,Bârlad,46.2261878,27.664593
269,Audia,3,Piatra-Neamţ,46.9458849,26.387846
270,Regina Elisabeta,48,Bucureşti Sectorul 5,44.43495919999999,26.0903577
271,Lazăr Gheorghe,1,Sibiu,45.7967194,24.1532076
272,B-Dul Independenţei,4,Brăila,45.2640146,27.969918
273,Şerban Vodă,167,Bucureşti Sectorul 4,44.4143751,26.1038621
274,Avram Iancu,31-33,Cluj-Napoca,46.7673228,23.5951138
275,Crisan,50,Drobeta-Turnu Severin,44.63448229999999,22.6511225
276,Lucretiu Patrascanu,30,Bacău,46.57114869999999,26.9093215
277,Timişoara,33,Bucureşti Sectorul 6,44.4267334,26.0409116
278,Tineretului,14,Oneşti,46.2480168,26.7615391
279,Victoriei,12,Hunedoara,45.75054739999999,22.9036796
280,Arcu,4,Iaşi,47.1666587,27.5783233
281,Domnească,235,Târgovişte,44.9278751,25.4662648
282,Dorobanţi,163,Bucureşti Sectorul 1,44.4585012,26.0953763
283,Ioan Slavici,4,Satu Mare,47.797232,22.875584
284,Armand Călinescu,14,Piteşti,44.857887,24.868737
285,Cuza Vodă,51,Bucureşti Sectorul 4,44.4222753,26.1058965
286,22 Decembrie 1989,16,Moreni,44.9784936,25.646416
287,Gheorghe Doja,98,Ploieşti,44.9451872,26.0255587
288,Prof. Nicolae Droc Barcian,8,Giurgiu,43.8924481,25.9668655
289,Basarabilor,33,Slatina,44.4259403,24.3622734
290,Neculce Ion,2,Bucureşti Sectorul 1,44.45475990000001,26.0721063
291,Jean Calvin,3,Oradea,47.0557386,21.9235647
292,Ferdinand I,91,Bucureşti Sectorul 2,44.443625,26.1283496
293,Curtea Honterus,3,Braşov,45.6404076,25.5874899
294,Lupeni,18,Medgidia,44.24566739999999,28.2625675
295,Republicii,8,Bistriţa,47.1361532,24.4940391
296,Márton Áron,80,Miercurea Ciuc,46.367665,25.805985
297,Basarab Matei,32,Bucureşti Sectorul 3,44.4304143,26.1129155
298,Georgescu George,2,Bucureşti Sectorul 4,44.4258139,26.0956462
299,Traian,19,Constanţa,44.1748945,28.6553103
300,Mihail Kogalniceanu,10,Iaşi,47.1720237,27.581297
301,Independenței,22,Buzău,45.1497563,26.8189631
302,Roman Ciorogariu,18,Oradea,47.0606836,21.9305112
303,1 Decembrie 1918,7,Petroşani,45.4252076,23.3684916
304,Mihai Eminescu,5,Satu Mare,47.7893913,22.8763248
305,Marasesti,57,Suceava,47.6505008,26.2510266
306,Stefan Cel Mare,15,Topliţa,46.9246047,25.3496835
307,Protopopescu Pache,62,Bucureşti Sectorul 2,44.4394141,26.1251258
308,Independentei,8,Ploieşti,44.9369048,26.0251072
309,Kós Károly,22-24,Sfântu Gheorghe,45.860539,25.7845371
310,Bd.Unirii,15,Slobozia,44.5646692,27.3554823
311,Doctor Raţiu Ioan,111,Turda,46.5749234,23.7773264
312,Sportului,12,Paşcani,47.2469904,26.7187944
313,Dezrobirii,80,Constanţa,44.1842126,28.6193186
314,Republicii,75,Breaza De Sus,45.18363979999999,25.6659289
315,Izvorul Malului,6,Câmpulung Moldovenesc,47.50842369999999,25.6119209
316,Str. Carol I,41,Râmnicu Vâlcea,45.108435,24.362386
317,Ştefan Cel Mare,6,Constanţa,44.18107939999999,28.6511455
318,Făgăraşului,6,Reşiţa,45.3223157,21.8841732
319,1 Decembrie 1918,31,Sighişoara,46.2194823,24.7963085
320,Bibici Margareta,1,Arad,46.1707924,21.3197527
321,Nalbei,3,Ploieşti,44.958126,26.0025753
322,Al.I.Cuza,182,Brăila,45.2751971,27.9701346
323,Calea Doftanei,4,Câmpina,45.1263539,25.7346509
324,Berceni,42,Vălenii De Munte,45.177502,26.0374077
325,Trandafirilor,9,Pucioasa,45.06942220000001,25.4361727
326,Sucevei,105,Fălticeni,47.4633285,26.301678
327,Trivale,29,Bucureşti Sectorul 4,44.38613350000001,26.1139936
328,Nicolae Bălcescu,80,Marghita,47.34186,22.332018
329,Tudor Vladimirescu,40,Miercurea Ciuc,46.3522756,25.8074851
330,Mitropoliei,34,Sibiu,45.7932914,24.1454403
331,Onisifor Ghibu,3,Oradea,47.0326907,21.9540622
332,Turnu Roşu,2,Sibiu,45.7821503,24.1541669
333,C.D.Loga,45,Timişoara,45.7529158,21.2344944
334,Mărășești,15,Câmpulung,45.263383,25.047551
335,Răscoalei 1907,42,Constanţa,44.18270709999999,28.6458559
336,Cair George,3,Târgovişte,44.9169179,25.4733793
337,Învățătorilor,10,Brăila,45.2634586,27.9566389
338,Vaida Voevod Alexandru,55,Cluj-Napoca,46.770575,23.627116
339,Alexandru Papiu Ilarian,37,Tîrgu Mureş,46.5408239,24.5751256
340,Negru Vodă,99-101,Alexandria,43.9680898,25.326136
341,Bariţiu Gheorghe,2,Deva,45.881152,22.9008185
342,Spiru Haret,6,Buzău,45.1487485,26.8098998
343,Spiru Haret,6,Bacău,46.5566044,26.9085129
344,Crişan,48,Drobeta-Turnu Severin,44.633996,22.651131
345,Ale. Mihail Sadoveanu,46,Iaşi,47.2012788,27.5380229
346,Obor,83,Beclean,47.1761882,24.1751955
347,Ștefan Cel Mare,4,Piatra-Neamţ,46.933265,26.368996
348,Mihai Viteazu,24,Suceava,47.6427072,26.2530839
349,Gen.Dragalina,5-7,Arad,46.1691186,21.3207937
350,Nicolae Balcescu,10,Slatina,44.4315928,24.3503986
351,Școlii,1,Făgăraş,45.8420968,24.9696202
352,Mihai Eminescu,3-4,Roman,46.9262506,26.9328805
353,Piata Huet,5,Sibiu,45.7972882,24.1497368
354,Piața Samuil Vulcan,18,Beiuş,46.6677905,22.3503294
355,G-Ral. Berthelot Henri Mathias,23,Bucureşti Sectorul 1,44.4410593,26.0873912
356,Unirii,1,Zalău,47.1802091,23.053563
357,1 Decembrie 1918,49/B,Şimleu Silvaniei,47.2337796,22.7925005
358,Italiană,17,Bucureşti Sectorul 2,44.4383067,26.1068605
359,1 Decembrie 1918,106,Târgu Jiu,45.028492,23.27913
360,Gróf Mikó Imre,1,Sfântu Gheorghe,45.865334,25.7884361
361,Icoanei,3,Bucureşti Sectorul 2,44.443118,26.1055143
362,M.Eminescu,5,Hârlău,47.4290467,26.8976179
363,Ștefan Cel Mare,67,Târgu Neamţ,47.206102,26.3702925
364,Vasile Alecsandri,3,Suceava,47.6465292,26.2575091
365,Republicii,90,Salonta,46.8056811,21.6461962
366,Carol,6,Drobeta-Turnu Severin,44.6257902,22.6415586
367,Libertăţii,14,Caransebeş,45.410877,22.215803
368,Al. I. Cuza,7,Reşiţa,45.2932066,21.8812606
369,Unirii,13,Târgu Jiu,45.0377875,23.2727088
370,Bulevardul Eroilor,7,Braşov,45.643848,25.5958078
371,Mihai Viteazul,17,Tîrgu Mureş,46.5474764,24.5713522
372,Castanilor,25,Turnu Măgurele,43.7441396,24.8679718
373,Vasile Alecsandri,37,Bacău,46.5624729,26.9081666
374,Costache Negri,50,Iaşi,47.1611938,27.5876161
375,Calea Victoriei,1-3,Arad,46.184422,21.3082077
376,Fundeni,254,Bucureşti Sectorul 2,44.463064,26.1601171
377,Nicolae Titulescu,24-26,Găeşti,44.7221398,25.3144052
378,Negru Vodă,131,Curtea De Argeş,45.1332731,24.6765802
379,Egalităţii,34,Piteşti,44.85272,24.8735779
380,Teilor,41,Urziceni,44.7118764,26.6490196
381,Primăverii,29,Oreavul,45.3692289,27.0245686
382,Nicolae Bălcescu,1-3,Râmnicu Sărat,45.3792102,27.0487826
383,Mioritei,76,Bacău,46.5717757,26.8964561
384,Avram Iancu,18,Cluj-Napoca,46.7661446,23.5899803
385,Feleacului,1,Arad,46.1859076,21.3082017
386,Brasovului,160A,Prejmer,45.7189503,25.7662082
387,Calea Dumbrăvii,123,Sibiu,45.77512919999999,24.1427646
388,Str Garii,20,Reghin,46.7779832,24.7120587
389,Márton Áron,2,Odorheiu Secuiesc,46.3029315,25.2957911
390,Smârdan,13,Iaşi,47.1578531,27.5998048
391,Olteniţei,3-7,Bucureşti Sectorul 4,44.4011017,26.1012023
392,Calea Bucovinei,56,Câmpulung Moldovenesc,47.52715999999999,25.568092
393,Slt.Petre Ionel,4,Brăneşti,44.4614058,26.329023
394,Constructorilor,8,Ploieşti,44.9265495,26.022263
395,Electroputere,21,Craiova,44.3060251,23.8234601
396,Metanului,1,Mediaş,46.1571526,24.35419
397,Mihai Viteazul,59,Zalău,47.1876047,23.0576227
398,Calea Unirii,49,Suceava,47.6720872,26.2790332
399,Ciocarliei,4,Aleşd,47.0554636,22.3954325
400,Decebal,41,Cluj-Napoca,46.77988029999999,23.5888272
401,Pictor Grigorescu Nicolae,12,Bucureşti Sectorul 3,44.4133907,26.1637749
402,Progresului,43,Baia Mare,47.653332,23.572883
403,21 Decembrie 1989,128-130,Cluj-Napoca,46.7755265,23.6050416
404,Gheorghe Pop De Băseşti,2,Alba Iulia,46.0657877,23.5613035
405,Brătianu C. I.,44,Piteşti,44.8408613,24.8587897
406,Școlii,2,Agnita,45.9751975,24.6282685
407,Str. Dr.Victor Babes,64,Baia Mare,47.65921609999999,23.5446539
408,Cotesti,52,Focşani,45.693331,27.176493
409,Lacu Rosu,149,Gheorgheni,46.7274086,25.6312876
410,Porumbacu,52,Bucureşti Sectorul 6,44.4564909,26.0517439
411,Brașovului,1,Câmpulung,45.2950767,25.0681588
412,Luminişului,1,Baia Mare,47.6551958,23.5915244
413,Dealului,4,Sibiu,45.793101,24.1437491
414,Republicii,196,Petrila,45.4504487,23.4038095
415,Pallady Theodor,26,Bucureşti Sectorul 3,44.4093556,26.1768633
416,Șoseaua Buzăului,15,Brăila,45.25242009999999,27.9434552
417,Petrochimiştilor,23,Piteşti,44.8192042,24.9180354
418,Energiei,9,Roman,46.936521,26.912451
419,Ficusului,44,Bucureşti Sectorul 1,44.4940194,26.0860318
420,Occidentului,12,Bucureşti Sectorul 1,44.44665870000001,26.0843919
421,Ceferistilor,3,Paşcani,47.2555686,26.7204801
422,Moților,78-80,Cluj-Napoca,46.7655673,23.5774664
423,Spătarul Preda,16,Bucureşti Sectorul 5,44.40972,26.081404
424,Dimitrie Cantemir,5,Suceava,47.647982,26.2443628
425,Romancierilor,1,Bucureşti Sectorul 6,44.4247243,26.0244759
426,Fundatura Harmanului,12,Braşov,45.6724114,25.6462139
427,Soarelui,1,Piatra-Neamţ,46.9403094,26.3479078
428,Bistriţei,21,Cluj-Napoca,46.7731395,23.6168331
429,Liceului,1,Comăneşti,46.4237787,26.4525667
430,Basarabia,47,Bucureşti Sectorul 2,44.4359912,26.1562948
431,Giuleşti,10,Bucureşti Sectorul 1,44.4524959,26.058197
432,Mat. Pompeiu Dimitrie,3,Bucureşti Sectorul 2,44.4792689,26.1083867
433,1 Decembrie 1918,10,Focşani,45.6880443,27.1894288
434,Piața Iancu Huniade,3,Timişoara,45.7524703,21.2282195
435,Podul Giurgiului,5,Bucureşti Sectorul 5,44.3861619,26.0907625
436,Pascaly Nicolae,2-4,Cluj-Napoca,46.7712868,23.6190729
437,Zizinului,106,Braşov,45.6469142,25.6405064
438,Electricienilor,1,Sibiu,45.7833564,24.1687444
439,Butuceni,10,Bucureşti Sectorul 1,44.4677568,26.0411694
440,Carol I,31,Câmpina,45.145508,25.7130265
441,Ștefan Cel Mare,67,Piatra-Neamţ,46.9387664,26.3584066
442,Lt Col. D. Petrescu,3,Târgu Jiu,45.0405417,23.2541792
443,Culturii,8,Baia Mare,47.6554688,23.5708122
444,Pravăţ,24,Bucureşti Sectorul 6,44.4250009,26.0370587
445,Prieteniei,7,Botoşani,47.7460639,26.6472237
446,Moldova,9,Focşani,45.698742,27.191927
447,Sararie,189,Iaşi,47.182568,27.570302
448,Republicii,45,Oneşti,46.25523399999999,26.7737327
449,Republicii,107,Adjud,46.0982706,27.1831522
450,B-Dul Traian,31,Piatra-Neamţ,46.9218594,26.3856535
451,George Enescu,2,Moineşti,46.4858957,26.4957106
452,Nationala,88,Podu Iloaiei,47.2112884,27.2703956
453,Str. Coriolan Brediceanu,37,Timişoara,45.7564225,21.2183492
454,Calea Moldovei,20,Bistriţa,47.142591,24.5105677
455,Socola,51-53,Iaşi,47.143802,27.596629
456,Ioan Ciordaș,5,Beiuş,46.6657218,22.347663
457,Mărășești,175,Târgu Neamţ,47.211257,26.376698
458,Victoriei,9,Cugir,45.83833509999999,23.3659413
459,Pantelimon Halipa,16,Iaşi,47.14779189999999,27.5755855
460,1 Decembrie 1918,32,Focşani,45.6891995,27.1935349
461,Maniu Iuliu,381 - 391,Bucureşti Sectorul 6,44.4348711,25.9752165
462,Mihail Kogălniceanu,11,Şimleu Silvaniei,47.2299592,22.7963564
463,Latcu Voda,15A,Siret,47.9493038,26.0626906
464,Castelului,2,Braşov,45.6373618,25.588567
465,Griviţei,363,Bucureşti Sectorul 1,44.46747329999999,26.0524951
466,Jiului,163,Bucureşti Sectorul 1,44.4840002,26.0602816
467,Sticlei,9,Mediaş,46.1535066,24.3419725
468,Nicolae Beldiceanu,10,Fălticeni,47.4610688,26.2978126
469,Mihai Bravu,428,Bucureşti Sectorul 3,44.4192279,26.1360889
470,Poieniței,25,Oradea,47.0651265,21.9127374
471,Mihai Sturdza,2,Iaşi,47.1413662,27.6028658
472,Feroviarilor,37,Bucureşti Sectorul 1,44.4663628,26.057196
473,Turnului,3,Braşov,45.6655522,25.6118854
474,Ștefan Cel Mare,268,Roman,46.9463878,26.9203287
475,Principală,25/859/236,Vadu Crişului,46.987441,22.5158872
476,Timişoara,6,Bucureşti Sectorul 6,44.4287328,26.04945
477,Calea Unirii,15,Suceava,47.66081,26.26603
478,Republicii,1-3,Roman,46.9312422,26.9248315
479,Tudor Vladimirescu,4,Rădăuţi,47.83925199999999,25.9161723
480,Bd. Al. I. Cuza,39,Reşiţa,45.30077,21.876718
481,Samoil Isopescu,19,Suceava,47.6388968,26.2603124
482,Chimistilor,3,Codlea,45.6867101,25.4519103
483,Constantin Brâncoveanu,"12, 12/A",Oradea,47.0633182,21.915299
484,Iuliu Maniu,52,Braşov,45.6495462,25.6022771
485,Basarabiei,48,Turda,46.5805811,23.770319
486,Cuza Voda,46,Focşani,45.7028165,27.1911376
487,Uzinei,30B,Giurgiu,43.8909014,25.9529651
488,Laminoristilor,115,Câmpia Turzii,46.55607,23.87442
489,Tudor Vladimirescu,11,Baia De Aramă,44.995492,22.8186242
490,Şerban Vodă,280,Bucureşti Sectorul 5,44.4056521,26.0958919
491,Petru Rareş,26,Piatra-Neamţ,46.9344698,26.3736011
492,Ficusului,20-26,Bucureşti Sectorul 1,44.4906487,26.0854753
493,Universitatii,20,Petroşani,45.41832549999999,23.375068
494,Independenţei,105,Bucureşti Sectorul 5,44.4332179,26.0806954
495,Calea Mănăștur,3-5,Cluj-Napoca,46.76238559999999,23.5717774
496,Mihail Kogălniceanu,1,Cluj-Napoca,46.7631895,23.5888405
497,Doaga,11,Piteşti,44.8540006,24.8673888
498,Mărăşti,59,Bucureşti Sectorul 1,44.470133,26.0682374
499,Cezărescu Economu,47-59,Bucureşti Sectorul 6,44.4403975,26.0558539
500,Bulevardul Basarabiei,256,Bucureşti Sectorul 3,44.4340325,26.1815407
501,Brazda Lui Novac,4,Craiova,44.32922,23.803697
502,Mamaia,124,Constanţa,44.1947413,28.6498756
503,Maior Ioan,10,Fălticeni,47.46654969999999,26.293189
504,Vârful Cu Dor,22,Arad,46.1707245,21.3067946
505,Iuliu Barsch,15,Bucureşti Sectorul 3,44.4293624,26.1106972
506,Chibzuinţei,15-17,Bucureşti Sectorul 6,44.44821530000001,26.0543993
507,Unirii,10A,Aiud,46.3090376,23.7293186
508,Tineretului,5,Borşa,47.6548323,24.6644871
509,Independentei,61,Fărcaşa,47.58324,23.3266212
510,Doinei,10,Cugir,45.8439971,23.3588656
511,Oltet,5,Craiova,44.3177753,23.7980492
512,Demetriade Scarlat,10,Craiova,44.3301785,23.7948808
513,Arhitect Duiliu Marcu,14,Craiova,44.33822199999999,23.7811914
514,Ion Țuculescu,2,Craiova,44.3122512,23.8381288
515,Elena Farago,17,Craiova,44.3406521,23.7747285
516,"Aleea Ghețișoarei ,Bl. 165 A",11,Craiova,44.33737420000001,23.7733021
517,Ștefan Velovan,4,Craiova,44.3169628,23.8193464
518,Revoluției,15,Craiova,44.3042995,23.8185611
519,Dimitrie Gerota,22,Craiova,44.30217150000001,23.7932996
520,Lacatusilor,45,Galaţi,45.41510760000001,28.0127301
521,Portului,57,Galaţi,45.434741,28.066951
522,B-Dul Milcov,13,Galaţi,45.4487217,28.0288381
523,Str. Closca,244,Pianu De Jos,45.9384758,23.4872517
524,Gheorghe Sincai,2,Sighetu Marmaţiei,47.9263669,23.8895226
525,Str. 1 Decembrie,7,Horezu,45.1451302,23.9893661
526,Mihai Eminescu,2,Seini,47.7489256,23.2857051
527,Nicolae Balcescu,10,Cugir,45.83704119999999,23.3618348
528,Regiment 11 Siret,33A,Galaţi,45.425432,28.036387
529,Unirii,21B,Sighetu Marmaţiei,47.9311161,23.9027974
530,Calea Unirii,45,Craiova,44.3140282,23.7965108
531,Principală,166,Aghireşu-Fabrici,46.86600869999999,23.2742734
532,Cartier Șoimul,38/A,Aleşd,47.05645759999999,22.3949752
533,Nerva Traian,8,Bucureşti Sectorul 3,44.4229733,26.1169818
534,Odobești,3,Bucureşti Sectorul 3,44.4180629,26.150096
535,Baciului,5A,Bucureşti Sectorul 5,44.3851748,26.0820207
536,Avântului,19,Vaslui,46.6423193,27.730326
537,Marton Aron,42,Valea Lui Mihai,47.515064,22.1313906
538,Piața 1 Decembrie 1918,1,Reşiţa,45.2885018,21.8871802
539,Gării,2,Band,46.5837627,24.3712419
540,Trandafirilor,16,Baraolt,46.077178,25.60114
541,Păișești,DN11A,Bascov,44.897693,24.8172842
542,,,Băile Herculane,,
543,Română,4/A,Beiuş,46.66964129999999,22.3507419
544,1 Iunie,10,Berca,45.283333,26.683333
545,Mureşanu Andrei,44 A,Bistriţa,47.1441997,24.5040304
546,"Ion C. Brătianu, Bl 2 Bis, Sc 3, Et 1",,Brăila,,
547,Sabinelor,56,Bucureşti Sectorul 5,44.4222261,26.0805324
548,Gării,2,Bumbeşti-Jiu,45.181827,23.380422
549,Caransebeş,1,Caransebeş,45.4102638,22.2173216
550,Giuleşti,184,Bucureşti Sectorul 6,44.4661141,26.0367018
551,Ghindari,150-154,Bucureşti Sectorul 5,44.404747,26.000461
552,Zorilor,49,Negreşti-Oaş,47.8652962,23.4358226
553,Principală,190C,Borş,44.3016408,26.1186158
554,Aleea Romanilor,2A,Călan,45.729524,23.0270504
555,I.L. Caragiale,6,Hunedoara,45.75515799999999,22.912129
556,Principală,668,Cenad,46.1317358,20.5813939
557,Cerceluş,52,Bucureşti Sectorul 3,44.4264424,26.1365025
558,Cetatea Fetei,10,Floreşti,46.726392,23.487165
559,Nicolae Firu,58,Chişoda,45.7029273,21.2121135
560,Ciobănaşului,23,Bucureşti Sectorul 2,44.4351447,26.1345296
561,,,Ciurbeşti,,
562,Moineşti,34,Bucureşti Sectorul 6,44.4287309,26.0159475
563,Principală,263,Corunca,46.4969452,24.6906922
564,Oițelor,8,Bucureşti Sectorul 4,44.4232004,26.1053864
565,Mărășești,22,Dej,47.1429099,23.8805968
566,Băiţa,1,Cluj-Napoca,46.766759,23.620321
567,Albini Septimiu,91-93,Cluj-Napoca,46.7656611,23.610911
568,Donath,238,Cluj-Napoca,46.7641903,23.5395027
569,Alexandrescu Grigore,47,Cluj-Napoca,46.7547195,23.5456847
570,Alexandrescu Grigore,47A,Cluj-Napoca,46.7547195,23.5456847
571,Vlahuţă Alexandru,59,Cluj-Napoca,46.7697042,23.5575982
572,Alverna,63,Cluj-Napoca,46.7566236,23.6148655
573,Capidan Teodor,17,Cluj-Napoca,46.7518961,23.604402
574,Moților,58,Cluj-Napoca,46.7662926,23.5795977
575,Pasteur Louis,55,Cluj-Napoca,46.757644,23.5834376
576,Herculane,13A,Cluj-Napoca,46.7705334,23.6258202
577,Cojocnei,93,Cluj-Napoca,46.7829366,23.6301482
578,Arinilor,2-4,Cluj-Napoca,46.7628604,23.5538814
579,Detunata,2,Cluj-Napoca,46.7660733,23.6268491
580,Vuia Traian,87,Cluj-Napoca,46.78488780000001,23.6576742
581,Meziad,4,Cluj-Napoca,46.7507871,23.5486501
582,Mehedinţi,15,Cluj-Napoca,46.7533631,23.5587035
583,Episcop Ivan Nicolae,18,Cluj-Napoca,46.7759438,23.615036
584,Cale Șerban Vodă,48,Bucureşti Sectorul 4,44.4225045,26.1024822
585,Revoluției,37G,Curtici,46.3406995,21.3077804
586,Piața Eliberării,9-11,Carei,47.6807609,22.4683467
587,Oborului,1,Turnu Măgurele,43.7523402,24.8711943
588,Chimiei,1,Turnu Măgurele,43.7579518,24.866379
589,Fagului,2A,Boldeşti-Scăeni,45.0137192,26.0321491
590,Mihai Eminescu,19,Rosiori De Vede,44.1151017,24.9915646
591,Parcului,21,Videle,44.2775492,25.5306607
592,Ștefan Cel Mare,147,Zimnicea,43.6542375,25.3624245
593,Sondei,1,Vatra Dornei,47.3395626,25.3625145
594,Erou Mirea Mioara Luiza,1A,Bucureşti Sectorul 4,44.3900023,26.1155853
595,Str. Odăi,142,Jilava,44.3380033,26.068977
596,Ștefan Cel Mare,3,Deta,45.39579089999999,21.2257
597,Aleea Viitorului,3,Deva,45.8751835,22.9110645
598,1 Mai,2,Deva,45.87135,22.898419
599,,194B,Dumbrava,,
600,Militaru Stoian,84,Bucureşti Sectorul 4,44.3952612,26.098826
601,Dunării,6,Făcăeni,44.5640607,27.8947029
602,Fundătura 1 Decembrie,2,Găeşti,44.7195294,25.3221385
603,,,Gălăneşti,,
604,Carpați,133b,Gătaia,45.42739359999999,21.422222
605,Principală,120,Geamăna,44.8216358,24.8885876
606,1 Decembrie 1918,12-14,Bucureşti Sectorul 3,44.4295437,26.1710701
607,Principală,276,Gottlob,44.2877508,26.1324481
608,Plt. Pazon Marin,2B,Bucureşti Sectorul 3,44.4133907,26.1637749
609,Str. Gării,159 BIS,Jilava,44.3434805,26.1038187
610,Estacadei,13,Bucureşti Sectorul 6,44.4396356,26.0196613
611,Cortez,1,Hlincea,47.13147679999999,27.5942333
612,Calea Traian,9,Ineu,46.4287099,21.8393316
613,Creangă Ion,31,Alexandria,43.96850999999999,25.3244979
614,Gheorghe Doja,11,Întorsura Buzăului,45.6753229,26.0361617
615,Piotr Ilici Ceaikovski,32-34,Arad,46.168149,21.3089917
616,Brătianu Constantin Ion,50,Constanţa,44.2297177,28.6067751
617,Cartier Unirii,15,Livada,47.8687411,23.1195264
618,Rândunelelor,3BIS,Luduş,46.470366,24.0922523
619,Bisericii,1,Lunca Cetăţuii,47.0948021,27.5639916
620,B-Dul Regele Ferdinand,13,Bucureşti Sectorul 2,44.4842998,26.1184766
621,Primăverii,9,Bicaz,46.9129873,26.0925569
622,Aleea Lăpușneanu,6,Zalău,47.1756807,23.0692175
623,Emil Racoviță,2B,Bucureşti Sectorul 4,44.3877424,26.1188429
624,Izvorul Mureşului,4,Bucureşti Sectorul 4,44.3863206,26.1061288
625,Pompierilor,5,Miercurea Nirajului,46.5332447,24.8012278
626,Vasile Lupu,78,Iaşi,47.1599709,27.6115227
627,,2A,Balciu,,
628,,,Moldova Nouă,,
629,Plutelor,2,Tîrgu Mureş,46.5606018,24.570252
630,Minerului,13,Motru,44.802456,22.974796
631,Aleea Elie Radu,38,Botoşani,47.74450059999999,26.64529
632,Plevnei,14,Câmpina,45.1216763,25.7322786
633,Strada Cpt. N.N. Cișman,26,Huşi,46.6769903,28.0641958
634,1 Decembrie 1918,11B,Orşova,44.7280901,22.400377
635,Miron Cristea,12,Năsăud,47.2821126,24.4137272
636,Crăieşti,1,Bucureşti Sectorul 6,44.4230724,26.0187231
637,Școlii,1,Nehoiu,45.41868150000001,26.3007694
638,Piața 1 Decembrie,9,Oradea,47.0513994,21.936698
639,Fabricii,44,Agnita,45.978907,24.6161745
640,Şieului,11B,Bistriţa,47.12589380000001,24.491805
641,Gábor Áron,1,Covasna,45.84354,26.164638
642,Mihai Eminescu,52,Dumbrăveni,46.226055,24.570525
643,Sondorilor,16,Mediaş,46.1568709,24.3556851
644,Pietroasele,1,Buzău,45.1589344,26.8207945
645,Constantin Brincoveanu,13,Râmnicu Sărat,45.378448,27.044957
646,Camil Petrescu,36,Paşcani,47.2459429,26.7172903
647,Progresului,108,Piatra-Neamţ,46.9191948,26.3824258
648,Str. Crișana,37,Săcueni,47.3500234,22.0925598
649,Haiducului,3,Sibiu,45.7823895,24.1563153
650,Constantin Brâncuși,12,Oradea,47.069728,21.921518
651,Constantin Brâncuși,,Arad,,
652,Rariștei,62B,Ploieşti,44.9464075,25.9966752
653,Traian Lalescu,39,Oradea,47.0795477,21.9208555
654,Poieniței,2A,Oradea,47.0631514,21.9188128
655,Aleea Lavandei,5c,Oradea,47.0422745,21.9272961
656,Plumbuita,5,Bucureşti Sectorul 2,44.46595920000001,26.1336415
657,Iuliu Maniu,46,Oradea,47.054572,21.9226233
658,Patria,2-4,Arad,46.1635019,21.321549
659,Gen. Gh. Mărdărescu,12,Oradea,47.0845669,21.8762176
660,Predeal,3,Arad,46.1991312,21.2935765
661,Griviței,17,Arad,46.1803843,21.2985575
662,Grădinarilor,8,Oradea,47.0490341,21.9561452
663,Zimbrului,9,Bistriţa,47.1347254,24.4929617
664,Ștefan Cel Mare,102,Covasna,45.8509366,26.1813201
665,1 Decembrie,34,Mediaş,46.165905,24.3335606
666,Alexandru Lăpuşneanu,12,Piatra-Neamţ,46.9348233,26.3608513
667,Logofăt Stanciu Mihoveanu,11,Mioveni,44.9571174,24.947214
668,Strada Mircea Cel Bătrân,88,Bârlad,46.2145325,27.6542312
669,Gladiolelor,13A,Sibiu,45.8063782,24.1470212
670,Sold. Răduţă Gheorghe,1,Bucureşti Sectorul 2,44.4418715,26.1783979
671,Aleea Râșnovenilor,11,Ploieşti,44.9455942,25.9990407
672,Călugăreni,8/A,Oradea,47.07993,21.9164034
673,Pictor Andreescu,5,Bacău,46.5514492,26.9154673
674,Plăieşului,2,Bistriţa,47.1392617,24.4890979
675,Părăști,1,Mioveni,44.9539608,24.929377
676,1 Decembrie 1918,,Râmnicu Sărat,,
677,Arhivelor,2,Sibiu,45.7957726,24.1518826
678,Dărmăneşti,42,Piatra-Neamţ,46.9390959,26.381659
679,G-Ral Eremia Grigorescu,11,Ploieşti,44.9348493,25.9834482
680,Mătase Constantin,9,Piatra-Neamţ,46.9384616,26.3865474
681,Aleea Parcului,10,Buzău,45.1475826,26.8083758
682,Calea Poplăcii,11,Sibiu,45.775154,24.130559
683,Anotimpului,11,Ploieşti,44.9301324,25.9880957
684,Arinului,2,Ploieşti,44.95487929999999,25.9991777
685,Hațegului,32,Oradea,47.0578598,21.8967908
686,Mesteacănului,15,Bistriţa,47.1449611,24.503076
687,Negoveanu,9,Sibiu,45.7840838,24.1740583
688,Aluminei,100,Oradea,47.0712355,21.9119611
689,Basmului,2,Bistriţa,47.138557,24.5033015
690,Oituz,27,Sibiu,45.784254,24.1514353
691,Călugăreni,4/A,Oradea,47.0804925,21.9150705
692,Aleea Bujorului,1,Buzău,45.1514677,26.7987886
693,Laurian Treboniu,13,Sibiu,45.774596,24.1849953
694,Frunzei,2,Arad,46.1409035,21.3371401
695,1848,38,Oradea,47.0511314,21.9326765
696,Unirii,10,Buzău,45.1490977,26.814377
697,Streiu,8,Sibiu,45.772821,24.1512232
698,Ozanei,9,Bacău,46.566696,26.887932
699,Vulturului,2,Buzău,45.1443522,26.8335804
700,Vasile Pârvan,17,Bârlad,46.2333222,27.6720524
701,Aleea Creșei,1,Giurgiu,43.9037076,25.9699265
702,Ostroveni,101G,Râmnicu Vâlcea,45.08048489999999,24.3665993
703,Negru Vodă,96,Eforie Sud,44.021159,28.652989
704,Str. Mușețelului,9,Călăraşi,44.2087101,27.3171747
705,Tudor Vladimirescu,10,Cernavodă,44.338348,28.040132
706,Nufărului,53,Comăneşti,46.4202486,26.4383304
707,Str. Castanilor,16,Dragomireşti-Vale,44.4737028,25.9338313
708,George Călinescu,6,Oneşti,46.2454385,26.7599687
709,Mihai Viteazu,13,Reghin,46.7783872,24.7019546
710,Unirii,6,Slatina,44.4297761,24.3718223
711,Str. Panazon,1,Târgu Neamţ,47.2048531,26.3678006
712,Hunedoara,29,Tîrgu Mureş,46.521834,24.537216
713,Mureș,6,Timişoara,45.7294458,21.2119505
714,Str. Stejarului,11,Piteşti,44.8705364,24.8420248
715,Slt. Dumitru Petrescu,4,Târgu Jiu,45.0314279,23.2689393
716,Retezat,1,Timişoara,45.7436873,21.2406408
717,Str. Negru-Vodă,17,Piteşti,44.86335039999999,24.8636081
718,Versului,2,Timişoara,45.7349993,21.2408801
719,Dragasani,1,Timişoara,45.7639197,21.2467623
720,Str. Frații Trifonescu,6,Piteşti,44.8493323,24.8675772
721,"Str. Horia, Cloșca Și Crișan",9,Piteşti,44.8376885,24.9034332
722,Str. Pescarilor,2,Piteşti,44.8428281,24.8773688
723,Teilor,5,Râmnicu Vâlcea,45.0961705,24.369921
724,9 Mai,10A,Cernavodă,44.3351761,28.0367866
725,Vasile Lupu,1,Feteşti,44.4148726,27.8256122
726,Trandafirilor,57,Giroc,45.6966356,21.2359791
727,Dealului,12-14,Reghin,46.77711799999999,24.697322
728,Primaverii,2,Slatina,44.435131,24.370994
729,Siretului,16,Târgu Jiu,45.036504,23.272213
730,Lămâiţei,18,Tîrgu Mureş,46.5309011,24.5548297
731,Leonard,13,Timişoara,45.7316163,21.2048031
732,Cabanei,4,Năvodari,44.3199266,28.6137402
733,Zorelelor,2,Râmnicu Vâlcea,45.0935883,24.3666223
734,Centura Basarabilor,4,Slatina,44.4247315,24.3648487
735,M.S. Motohon,53,Timişoara,45.774214,21.2337492
736,Gheorghe Marinescu,9,Tîrgu Mureş,46.55643980000001,24.5806889
737,Sorescu Marin,3A,Râmnicu Vâlcea,45.09225300000001,24.375487
738,Zmeurei,9B,Slatina,44.4236029,24.3685131
739,Griviței,1,Târgu Jiu,45.040379,23.2763352
740,Plaiului,2B,Tîrgu Mureş,46.53812,24.5687476
741,Vasile Lupu,29A,Timişoara,45.7379449,21.1976967
742,Calea Lui Traian,85,Râmnicu Vâlcea,45.0935706,24.3604604
743,Str. Constructorilor,2A,Piteşti,44.843405,24.88247
744,Muncii,14,Tîrgu Mureş,46.5348404,24.58553
745,Musicescu,9,Timişoara,45.7284658,21.2080355
746,Rapsodiei,9,Râmnicu Vâlcea,45.1164329,24.3655129
747,Remetea,35,Tîrgu Mureş,46.5622196,24.5398252
748,Brândusei,15,Timişoara,45.7241603,21.243583
749,Str. Frasinului,10,Piteşti,44.8522093,24.8544574
750,Brâncuşi Constantin,7,Râmnicu Vâlcea,45.1175001,24.3714897
751,Suceava,13A,Timişoara,45.7581075,21.2115349
752,Str. Călugăreni,2,Piteşti,44.8474037,24.8898156
753,Procopiu Grigore,8,Râmnicu Vâlcea,45.1107255,24.3681419
754,Str. Independenței,20,Piteşti,44.8394869,24.875383
755,Mioriței,2,Târgu Jiu,45.0260895,23.2727205
756,Brailoiu,2,Timişoara,45.734711,21.2363191
757,Semenic,8,Timişoara,45.75833799999999,21.239123
758,Republicii,19,Nucet,46.4838311,22.5636484
759,Adamclisi,1,Constanţa,44.202704,28.6272524
760,Pelicanului,3,Constanţa,44.15931,28.611906
761,Cutezătorilor,7,Constanţa,44.1770489,28.6177009
762,Mălinului,4,Constanţa,44.1889633,28.6390516
763,Mimozelor,4,Constanţa,44.2007049,28.6319615
764,Aleea Prof. Onisifor Ghibu,16,Oradea,47.032758,21.955644
765,Tudor Vladimirescu,2,Urlaţi,44.9885818,26.2344158
766,Mihai Viteazu,2,Haţeg,45.6025233,22.9485237
767,Luminii,6,Orăştie,45.8386977,23.2001082
768,Oțelu Roșu,2,Oţelu Roşu,45.5237878,22.369412
769,Principală,27,Păsăreni,46.4974599,24.6898713
770,Libertăţii,1,Alexandria,43.97929999999999,25.313665
771,Bd.Unirii,26A,Târgovişte,44.9241272,25.441604
772,Aleea Plopilor,9,Târgu Jiu,45.0234681,23.2810131
773,Eminescu Mihai,6,Piatra-Neamţ,46.9264286,26.3664511
774,Compozitorilor,20,Bucureşti Sectorul 6,44.419089,26.040802
775,Intr. Teilor,3A,Piteşti,44.8554642,24.8681506
776,Str. Mihai Eminescu,1,Piteşti,44.8628119,24.8780927
777,Pictor Tattarescu Gheorghe,10,Bucureşti Sectorul 3,44.4301977,26.1588451
778,Str. Neajlov,56,Voluntari,44.4976884,26.1930934
779,Str. Erou Șerban Ion,1,Voluntari,44.498911,26.134137
780,Bdul Dunării,71,Voluntari,44.5003602,26.1989768
781,Zorilor,50,Moineşti,46.4746573,26.4865446
782,Racoviţă Gheorghe,191,Vaslui,46.638962,27.735324
783,General Magheru,37,Râmnicu Vâlcea,45.1085061,24.3675112
784,Sulyok Istvan,9A,Oradea,47.0579889,21.9224449
785,Peneş Curcanu,1,Vaslui,46.6342124,27.729748
786,Muncii,H3,Rovinari,44.898014,23.1640178
787,Strada Principală,1,Puieşti,46.42425,27.4861619
788,Teilor,1D,Sângeorz-Băi,47.3648926,24.6714456
789,Decebal,11,Sânnicolau Mare,46.073576,20.620314
790,Triumfului,9,Sântandrei,47.0714014,21.8588389
791,Kos Károly,19/A,Sfântu Gheorghe,45.8590701,25.7843266
792,Elev Popovici Nicolae,20-22,Bucureşti Sectorul 5,44.4157701,26.0660981
793,Lereşti,22,Bucureşti Sectorul 5,44.4030741,26.0522693
794,Vargaszeg,634/A,Siculeni,46.4374818,25.7531516
795,Plopilor,19,Sighişoara,46.2256618,24.8128384
796,Sinaia,4,Bucureşti Sectorul 2,44.4611281,26.1346453
797,Molidului,2,Slobozia,44.55816799999999,27.3638491
798,Gara Mică,12,Sovata,46.5987435,25.0683434
799,Tineretului,4,Ştei,46.5370388,22.458614
800,Salcâmilor,12,Târgu Cărbuneşti,46.5408491,24.5431801
801,1 Mai,,Târgu Frumos,,
802,Benedek Elek,3,Târgu Secuiesc,45.9941859,26.1311723
803,Piața Trandafirilor,10,Târnăveni,46.3293615,24.2848167
804,Teiul Doamnei,99,Bucureşti Sectorul 2,44.4631908,26.1259232
805,Lunca Bradului,1A,Bucureşti Sectorul 3,44.422149,26.1595645
806,Aleea Prevederii,6,Bucureşti Sectorul 3,44.4100162,26.1711203
807,Sănătății,1,Turceni,44.6810758,23.3700707
808,Ionel Perlea,1,Ţăndărei,44.6396119,27.6643965
809,Aleea Căminului,1,Mioveni,44.9597791,24.9422604
810,Mihai Viteazu,85/A,Reghin,46.775077,24.694867
811,P-Ța 1 Decembrie 1918,1,Ploieşti,44.9258412,26.0297702
812,Intrarea Creșei,1,Urziceni,44.7123746,26.6472757
813,Câmpenești,18,Apahida,46.8304702,23.739032
814,Aleea Toamnei,1 A,Zalău,47.1931982,23.0580174
815,Calea Floreasca,165,Bucureşti Sectorul 1,44.4655888,26.1017945
816,Revoluției,37,Hârşova,44.6861203,27.9481648
817,Alexandru Ghica,148,Alexandria,43.9680589,25.341919
818,Strada Lauvei,4,Fedeşti,46.3044064,27.8743425
819,Aleea Scolii,3,Botoşani,47.73807499999999,26.6562206
820,B-Dul Victoriei,112,Dorohoi,47.940499,26.407698
821,Str. Nicoliță Sanda,18,Drăgăşani,44.6631799,24.2608712
822,Nicolae Bălcescu,20,Focşani,45.7010971,27.1783671
823,Avram Iancu,52,Ocna Mureş,46.3800702,23.8525105
824,Principală,2,Săpânţa,47.97416459999999,23.6977807
825,Cezar Boliac,22-24,Bucureşti Sectorul 3,44.429337,26.1272287
826,Prof. Moise Nicoară,11,Bucureşti Sectorul 3,44.4267603,26.125686
827,Recunoştinţei,16,Craiova,44.3099247,23.8066263
828,General Praporgescu,7,Râmnicu Vâlcea,45.1062964,24.3649668
829,Matei Basarab,A4,Râmnicu Vâlcea,45.1134965,24.3705699
830,Zambilei,40,Valea Roşie,44.3288077,27.325789
831,Principală,3,Valea Vişeului,47.9096963,24.1561644
832,Plaurului,2,Roseţi,44.2106347,27.44982
833,Principală,42,Adjudu Vechi,46.13489149999999,27.186701
834,Principală,191,Măceşu De Sus,43.9166396,23.7084138
835,Branesti,,Brăneşti,,
836,Cloșca,5,Albac,46.4462864,22.9645777
837,Schela,,Schela,,
838,Agricola Cardas,9,Tecuci,45.83665060000001,27.4127971
839,Biserica Sf Nicolae,91,Alimăneşti,44.2592261,24.5499878
840,Principală,249,Almăj,44.4461023,23.7048692
841,Principală,1,Almaşu Mare,46.1106669,23.1163988
842,Principală,1000A,Amărăştii De Jos,43.9552255,24.1641956
843,Principală,361,Amărăştii De Sus,43.98085760000001,24.1574796
844,Str.Principala,129,Ampoiţa,46.1184403,23.4638471
845,Principală,1,Andreiaşu De Jos,45.7533059,26.8334989
846,Principală,1,Andreiaşu De Sus,45.7374425,26.8358212
847,Principală,1,Angheleşti,44.3382122,25.642074
848,Principală,63,Apele Vii,44.0650178,24.0751485
849,Principală,1,Argea,44.2877508,26.1324481
850,Str.De Centru,8,Arieşeni,46.4767119,22.7549531
851,Principală,1,Arini,44.2877508,26.1324481
852,Panduri,143,Focşani,45.6897935,27.1965254
853,Banul Stepan,33,Craiova,44.3041846,23.7595762
854,Avram Iancu,27E,Avram Iancu,46.7670001,23.5939368
855,Matei Millo,9,Craiova,44.31058609999999,23.8045047
856,Str.Principalal,58,Bacea,46.252674,27.0456488
857,Principală,177,Bădoşi,44.1482579,23.8832279
858,Principală,1,Băgău,44.2877508,26.1324481
859,M. Sadoveanu,1,Bahna,45.943161,24.96676
860,22 Decembrie,41,Baia De Arieş,46.38024799999999,23.273916
861,Principală,11,Băiţa,44.2877508,26.1324481
862,1 Decembrie,1,Balasan,46.6929851,26.8938822
863,Primaverii,89A,Băleasa,45.943161,24.96676
864,Principală,1,Băleşti,45.4413965,27.236982
865,Principală,131,Balomiru De Câmp,45.9383832,23.3599501
866,Florea Marinescu,47,Balota De Jos,44.5487285,23.8140445
867,Pandurilor,186,Bâlta,45.943161,24.96676
868,Garii,37,Bălteni,44.7227093,26.0247512
869,Streiului,20,Bărăbanţ,46.1004192,23.581218
870,Dealului,80,Bărăşti,44.4493366,24.1383785
871,Principală,173,Bărăştii De Vede,44.7193967,24.6563968
872,Ciobotilor,12,Brădeştii Bătrâni,44.4978712,23.6543581
873,Mihai Viteazul,286,Bârca,43.9731094,23.6186617
874,Bărcănestilor,47,Bărcăneşti,44.6371074,26.6471476
875,Principală,1,Poienile De Sub Munte,47.82258940000001,24.4348342
876,Principală,1,Bârseşti,45.0608922,24.2465063
877,Principală,32,Bătineşti,45.8302637,27.1549137
878,Principală,105,Belcinu,44.2409296,23.9280391
879,Iancu Jianu,140,Beneşti,46.5565856,23.8839421
880,Principală,32,Benic,44.2877508,26.1324481
881,Principală,112,Berchez,47.5176603,23.5015714
882,Morii,34,Berghin,46.0699955,23.7379683
883,Principală,1,Beţa,44.2877508,26.1324481
884,Principală,1,Biceştii De Jos,45.5418178,26.9309632
885,Principală,1,Biceştii De Sus,45.5557084,26.9374466
886,Principală,199,Bilieşti,45.7186718,27.3386448
887,Bircii,110,Bircii,44.51729719999999,24.5990981
888,Ghiocelului,5,Bârseştii De Sus,45.1745988,24.5471537
889,Principală,10,Borşa,47.6537683,24.6631517
890,Teilor,110,Bârza,46.7336259,23.4767905
891,Pavel Aron,6,Bistra,45.943161,24.96676
892,Padurea Sarului,15,Bistriţa Nouă,44.3990979,24.2273939
893,Principală,320,Blidari,45.1119657,23.4977526
894,Bobicesti,50,Bobiceşti,44.3944103,24.1404457
895,Principală,1,Crăciuneşti,46.2214676,24.7154446
896,Principală,154,Bodăieşti,44.5872664,23.6832367
897,Centru,66,Bogdăneşti,46.3274426,26.5520614
898,Principală,1,Bogheşti,46.1598368,27.406993
899,Școlii,10,Bogza,45.5096583,27.193405
900,Principală,1,Boiu Mare,47.3939414,23.5820837
901,Principală,1,Boloteşti,45.808852,27.13933
902,Principală,1,Bonţeşti,46.2753004,22.3049342
903,Principală,117,Borcut,47.4802476,23.8393169
904,Ulita,67,Bordeasca Nouă,45.5382171,27.2897422
905,Principală,1,Bordeşti,45.5567113,27.0419115
906,Principală,1,Bordeştii De Jos,47.0287792,26.4366476
907,Principală,329,Borşani,44.2585044,26.1753299
908,Principală,1,Boţârlău,45.634269,27.3808528
909,Mihail Vărzaru,180,Botoşeşti-Paia,44.4047429,23.2570491
910,Școlii,4,Boureni,45.943161,24.96676
911,Principală,42,Boz,44.2877508,26.1324481
912,Principală,11,Bozânta Mare,47.6363978,23.4234609
913,Principală,122,Bozânta Mică,47.63700619999999,23.4147051
914,Vasile Alecsandri,79,Brabeţi,44.11703,24.3702452
915,Principală,95,Brădăceşti,45.69985210000001,26.6746297
916,Stadionulu,6,Braloştiţa,44.4992829,23.5274452
917,Principală,356,Bratovoeşti,44.1283016,23.8995401
918,Principală,439B,Brebeni,44.0867723,27.7854211
919,Principală,269,Brebeni,44.0867723,27.7854211
920,Principală,249,Gostavăţu,44.058331,24.554101
921,Constantin Brincoveanu,59,Brâncoveni,44.31319939999999,24.3069229
922,Morii,7,Bălteni,44.4407047,24.5360276
923,Crizantemelor,4A,Broşteni,46.7976195,26.7952375
924,Principală,300,Broşteni,45.943161,24.96676
925,Ioan Maiorescu,61,Bucerdea Grânoasă,46.19602279999999,23.8395601
926,Principală,294,Bucerdea Vinoasă,46.162994,23.5258832
927,Gradinitei,32,Bucinişu,43.9465817,24.2456379
928,Dreapta,4,Bucinişu Mic,43.9353108,24.2559003
929,Principală,601B,Poieni,46.9178945,22.8585717
930,Principală,157,Bucium-Sat,45.7404004,25.0940673
931,Principală,56,Buciumi,45.7410213,25.0962383
932,Principală,141,Bucovicior,44.2969339,23.3524644
933,Principală,1,Buda,46.2214676,24.7154446
934,Culturii,3,Budeşti,45.6258033,27.0702873
935,Principală,73,Bulzeşti,44.5184131,23.8987304
936,Valea Buninginii,1,Buninginea,46.2314273,23.0402837
937,Principală,10A,Buşca,44.2709047,26.1491951
938,Primaverii,67,Căiata,45.52527,27.156788
939,,131,Călăraşi,,
940,Gradinitei,50,Călienii Vechi,45.6014347,27.5073314
941,Principală,1,Călimăneşti,45.239101,24.3398608
942,Școlii,1,Călineşti,44.0860573,25.2421564
943,Principală,323,Câlnic,45.9297551,25.7927996
944,Principală,182,Calopăr,44.16549759999999,23.7667434
945,Eroilor,1,Călui,44.4535944,24.0558611
946,Calea Odobesti,328,Câmpineanca,45.7124139,27.1268864
947,Campulung La Tisa,100,Câmpulung La Tisa,47.98417329999999,23.7658465
948,Rachitei,1,Cândeşti,45.083333,25.216667
949,Principală,41,Căpâlna De Jos,46.239323,24.1090933
950,Principală,46,Căpâlna,46.7446535,22.1388926
951,Principală,1,Căpud,46.2061825,23.727166
952,Craiovei,160,Caraula,44.1955157,23.2463987
953,Principală,1,Cărbunari,45.943161,24.96676
954,Institutiilor,12,Cârligele,45.6737323,27.0797914
955,Calea Craiovei,32,Cârna,43.8887716,23.6001253
956,Calea Bocii,30,Carpen,44.33673049999999,23.257632
957,Principală,1,Cărpiniş,45.6643787,25.7690733
958,Școlii,290,Cărpiniş,45.7885628,20.8993538
959,Principală,1,Carşocheşti-Corăbiţa,45.7288064,26.7465272
960,Brestei,342,Craiova,44.32862280000001,23.7614461
961,Calea Zănogii,1,Castranova,45.0897334,22.4650258
962,Drum Comunal 58,17,Brehuieşti,46.9181006,26.7882356
963,Grigore Hagiu,10,Târgu Bujor,45.8740128,27.9162254
964,Principală,134,Catane,44.75489169999999,25.294967
965,Principală,2,Cătăuţi,45.5426055,26.8453294
966,Popesti I,129,Celaru,44.0412911,24.1187227
967,Dudului,1,Corabia,43.7676721,24.4531887
968,Principală,250,Cenade,46.0582046,24.0050622
969,Principală,3,Poienile De Sub Munte,47.82258940000001,24.4348342
970,Principală,428,Petrova,47.8324798,24.2304808
971,Principală,1,Cerbu,46.2214676,24.7154446
972,Principală,294,Cergău Mare,46.096802,23.9222325
973,Principală,98,Cernăteşti,45.2749123,26.714925
974,Principală,1,Certege,46.4167769,23.0227299
975,Poștei,18,Cetatea De Baltă,46.24666209999999,24.1697793
976,Dumitru Cezianu,29,Cezieni,44.1820332,24.2671654
977,Școlii,1,Fălcoiu,44.2422206,24.3666591
978,Principală,1,Chiojdeni,45.5619689,26.8690099
979,Principală,1,Chiricani,45.6929029,26.712391
980,Chiteasca,1,Chiţeasca,44.5487516,24.5909832
981,Principală,17,Cib,44.2877508,26.1324481
982,General Marcel Olteanu,143,Cilieni,43.8963832,24.6220039
983,Aleea Garofitei,4,Câmpu Mare,44.7583073,24.3078589
984,Școlii,3,Ciocanele,44.5134651,23.4426766
985,Oltului,84,Cioflanu,44.096875,24.5635255
986,Cionesti,1,Cioneşti,46.45178869999999,22.9755255
987,Principală,25,Ciorani,45.9975767,27.1926595
988,Principală,1,Ciorăşti,45.4353544,27.3145228
989,Școlii,8,Cioroiu,44.2417521,24.3659366
990,Eroilor,43,Slatina,44.4544134,24.3716883
991,Bazil Gruia,81,Cisteiu De Mureş,46.3772781,23.8105237
992,Principală,127,Ciugud,46.0591733,23.6273932
993,Principală,18,Ciugudu De Jos,46.417699,23.7451372
994,Principală,178A,Ciuguzel,46.2822628,23.858831
995,Principală,1,Ciuldeşti,46.3908153,23.1076132
996,Vasile Lucaciu,2,Ciumbrud,46.3046369,23.7630726
997,Grădiniței,5,Ciupercenii Noi,43.90767839999999,22.9480895
998,Regimentul1 Dorobanti,11,Ciupercenii Vechi,43.9447363,22.8962298
999,Valea Ciuruleasa,1,Ciuruleasa,46.2561907,23.0276218
1000,Principală,1,Ciuşlea,45.993267,26.8457667
1001,Principală,187,Ciutura,44.2259772,23.5679726
1002,Desnăţuiului,15,Cleanov,44.021539,23.6268045
1003,Principală,17,Clipiceşti,45.9930915,26.9083512
1004,Smaranda Apostoleanu,1,Coloneşti,44.6287963,24.6762752
1005,Caporal Hanciu,57,Stolniceni,45.0263886,24.2764558
1006,Principală,215,Colţeşti,46.4223779,23.5612016
1007,Calea Haiducilor,162,Amărăşti,44.7639972,24.1563554
1008,Principală,128,Berislăveşti,45.2507819,24.4226996
1009,Principală,28,Boişoara,46.5771688,23.4641444
1010,Principală,24,Buneşti,46.1090623,25.054254
1011,Casa De Cultură,33,Costeşti,44.6688385,24.8791694
1012,Principală,1,Creţeni,44.68357640000001,24.1892828
1013,Băbeni Oltețu Vale,55,Diculeşti,44.6170953,23.9797873
1014,,,Făureşti,,
1015,Frâncești,,Frânceşti,,
1016,Principală,1,Galicea,44.9157365,24.2782571
1017,Principală,1,Ghioroiu,44.6909061,23.8345059
1018,Principală,29,Grădiştea,44.204562,27.1029073
1019,Str. Lăcustenii De Jos,1,Lăcusteni,44.6848576,23.8978338
1020,Principală,28,Lădeşti,44.8763394,24.0416468
1021,Principală,132,Laloşu,44.5482163,24.0228597
1022,Lungești,559,Lungeşti,44.5748284,24.1908099
1023,Podul Șipotului,6,Malaia,45.3527107,24.0375284
1024,,,Măldăreşti,,
1025,,,Mateeşti,,
1026,,,Mihăeşti,,
1027,Principală,155,Mitrofani,44.7272653,24.2105589
1028,Principală,66,Muereasca,45.1859761,24.3204875
1029,Str. Școlii,7,Olanu,44.8672386,24.2913638
1030,Principală,1,Orleşti,44.7971027,24.2278472
1031,Principală,101,Oteşani,45.0676724,24.0326502
1032,Principală,12,Păuşeşti-Măglaşi,45.14291739999999,24.249182
1033,Principală,10,Perişani,45.37596250000001,24.4059953
1034,Dj677A,172,Pesceana,44.8653882,24.1373509
1035,Principală,147,Pietrari,45.0930599,25.2941953
1036,Principală,45,Popeşti,44.9609391,24.3386403
1037,Roesti,42,Roeşti,44.9159604,24.0903276
1038,,,Roşiile,,
1039,Principală,69,Runcu,45.1811078,25.3839032
1040,,,Sălătrucel,,
1041,,,Scundu,,
1042,Principală,72,Sineşti,47.1491857,27.2158566
1043,,,Şirineasa,,
1044,Principală,175,Slătioara,45.1180204,23.9174204
1045,Principală,1,Stăneşti,43.9216719,25.8421208
1046,Principală,95,Ştefăneşti,44.6000163,24.242985
1047,Str. Stoilești,39,Stoileşti,44.8896114,24.341789
1048,Obrocești,4,Stroeşti,45.1006829,23.9286916
1049,Principală,3,Şuşani,44.2877508,26.1324481
1050,Str. Tudor Vladimirescu,1,Suteşti,44.6539616,24.26534
1051,Str. Tarure,11,Titeşti,45.4192516,24.3910971
1052,Principală,4,Tomşani,44.6363457,25.5061257
1053,Str. Printre Școli,1,Vaideeni,45.1715707,23.929972
1054,Str. Eroilor,141,Voiceşti,44.612321,24.2907378
1055,Str. Aleea Paraului Scolii,2,Voineasa,45.4173471,23.9611889
1056,Nichita Stănescu,118,Comanca,44.0775508,24.3568329
1057,Negrea,,Negrea,,
1058,Principală,1,Copăceşti,45.993267,26.8457667
1059,Grivita Rosie,12,Corabia,43.7769153,24.5051199
1060,V.G. Paleologu,77,Corlate,44.1788675,23.3168771
1061,Principală,1,Cornetu,45.5006382,27.049756
1062,Corni,85,Corni,45.1472658,25.7123485
1063,Principală,251,Cornu,44.2485647,23.2431088
1064,Principală,1,Coroteni,45.47979,27.0348838
1065,Blajului,1,Coşlariu,46.1334848,23.644428
1066,Sfantul Nicolae,17,Coşoveni,44.2454411,23.93628
1067,Principală,10,Costeni,45.943161,24.96676
1068,Principală,1,Costeşti,45.0469333,26.7577273
1069,Principală,1,Costişa,46.7531177,26.6393399
1070,Principală,405,Coştiui,47.8806155,24.0336263
1071,Principală,13,Coteana,44.3015992,24.4548159
1072,Dreptatii,2,Coteşti,45.6462989,27.056813
1073,Măldărescu,389,Coţofenii Din Faţă,44.459013,23.6566649
1074,Principală,1,Covei,46.2214676,24.7154446
1075,Principală,1,Coza,45.943161,24.96676
1076,Libertatii,122,Crăciunei,44.1421464,24.6631976
1077,6 Martie,147,Crăciunelu De Jos,46.1726938,23.8356917
1078,Craiva,81,Craiva,46.5812871,21.9734424
1079,Principală,319,Cricău,46.17284249999999,23.56778
1080,Principală,52,Crihan,44.2877508,26.1324481
1081,Principală,109,Crâmpoia,46.2207687,24.7066548
1082,Inv. Alexadru Predeteanu,20,Cruşovu,43.9084181,24.4099453
1083,Ulmilor,1,Cucueţi,44.0968054,24.9903919
1084,Principală,1,Cufoaia,47.4782454,23.8012012
1085,Principală,32,Cunţa,44.2877508,26.1324481
1086,Unirii,106,Răcarii De Jos,44.5222727,23.5731327
1087,Eroilor,17,Curtişoara,44.4999998,24.3329576
1088,Principală,226,Cut,45.9310444,23.6636521
1089,Principală,33,Daia Română,46.0153173,23.6676072
1090,Damian,133,Sadova,43.8946738,23.975559
1091,Principală,1,Dăneştii Chioarului,47.5548529,23.3442184
1092,Principală,132,Deal,44.2877508,26.1324481
1093,Principală,261,Dealu Morii,46.3024407,27.2969219
1094,Principală,18,Decea,45.943161,24.96676
1095,Libertatii,55,Dejeşti,44.83237949999999,24.3605423
1096,Prinţul Obrenivici,18,Desa,43.8705858,23.0326948
1097,Secundara,1,Diocheţirediu,45.9277812,27.1436885
1098,Mihai Viteazul,45,Doanca,43.8513874,24.645114
1099,Sabin Balasa,3,Dobriceni,44.52475,24.0075853
1100,Dobric,56,Dobricu Lăpuşului,47.5017107,23.9069032
1101,Calea Unirii,41,Dobridor,44.1194351,23.1667321
1102,Petru Cercel,2,Dobrosloveni,44.1780633,24.354364
1103,Mihai Viteazul,58,Dobroteşti,43.8761164,24.6312516
1104,Unirii,17,Dobrotinet,43.9719846,23.8735909
1105,Principală - Sat Dobrun,121A,Dobrun,44.2585228,24.221323
1106,Principală,80,Domneşti-Târg,46.0280233,27.1947254
1107,Domnita Balasa,6,Văleni,44.2963429,24.3072483
1108,Soseaua Giubegii,14,Domnu Tudor,44.1402917,23.316689
1109,Principală,235,Doştat,45.970845,23.8417839
1110,Principală,1,Dragosloveni,45.993267,26.8457667
1111,Valea Ramnei,161,Dragosloveni,45.561172,27.0791279
1112,Nicolae Iorga,3,Drăgoteşti,44.2415072,24.1020146
1113,Principală,81,Drâmbar,46.0769494,23.631241
1114,Principală,101,Drănic,44.05455420000001,23.846127
1115,Principală,145,Dranovăţu,44.4372874,24.2762984
1116,Principală,98,Draşov,45.943161,24.96676
1117,Muncii,6,Dumbrava,45.909477,27.11149
1118,Stefan Cel Mare,1,Caracal,44.1067409,24.328819
1119,C. Hogas,16,Tecuci,45.8478834,27.4231756
1120,Mărăşeşti,3,Zlatna,46.1099184,23.2219953
1121,Rachitei,1,Dumbrăveni,46.22979650000001,24.5752707
1122,Principală,46,Dumitreşti,46.5210418,24.7785438
1123,Principală,1,Dumitreşti,46.5210418,24.7785438
1124,General Teiusanu,93,Drăgăneşti-Olt,44.1839246,24.5005625
1125,Costache Negri,,Costache Negri,,
1126,Ferdinand,18,Alba Iulia,46.0643222,23.5794957
1127,Făgetu De Sus,1,Făgetu De Jos,46.395773,22.8392343
1128,Principală,251A,Fălcoiu,44.2298322,24.3693757
1129,Domneasca,1,Faraoanele,45.7141815,27.0401855
1130,Principală,279,Fărău,46.33865549999999,24.0021866
1131,Principală,81,Fărcaş,44.2877508,26.1324481
1132,Principală,1,Fărcaşele,44.1432353,24.4404887
1133,Principală,58,Fărcaşu De Jos,44.1342691,24.458597
1134,Școlii,190,Feisa,46.2249045,24.1423743
1135,Principală,1,Feldioara,44.8372723,25.8516989
1136,Principală,78,Feneş,44.2877508,26.1324481
1137,Principală,184,Ferestrău-Oituz,46.206076,26.6144465
1138,Principală,1,Feteşti,44.3687237,27.8285646
1139,Gh.Buzoianu,11,Târgu Bujor,45.871995,27.912175
1140,Stefan Luchian,17,Botoşani,47.7464801,26.6596839
1141,Recunostintei,14,Craiova,44.3099868,23.8064483
1142,Principală,1,Frăteşti,43.9681451,25.975128
1143,Valea Bisericii,8,Fratoştiţa,44.5872002,23.5701038
1144,Salcimului,2,Frunzaru,44.0392386,24.5905754
1145,Principală,302,Fundu Răcăciuni,46.3571774,26.8907583
1146,Principală,188,Fundu Tutovei,46.6970722,27.1838313
1147,Principală,6,Noşlac,46.3996863,23.9256307
1148,Principală,289,Galda De Jos,46.17928209999999,23.6192448
1149,Principală,19,Galiciuica,44.1012647,23.3913676
1150,Blajului,102,Galtiu,46.1363686,23.6510862
1151,Gradinitei,2,Găneasa,44.4918506,26.2794841
1152,Principală,208,Gângiova,43.9021941,23.8559394
1153,Ion Creangă,476,Gârbova,45.8593251,23.7201921
1154,Principală,50A,Gârda De Sus,46.45433999999999,22.8133413
1155,Principală,22,Vintileasca,45.60648930000001,26.7026452
1156,Principală,8,Garoafa,44.2877508,26.1324481
1157,Decindea,2A,Găvăneşti,44.4183969,24.0169569
1158,Principală,276,Geoagiu De Sus,46.2529017,23.5917174
1159,Principală,65,Gheorghe Doja,46.4461792,24.4812951
1160,Eroilor,109,Gherceşti,44.3544063,23.8958101
1161,Principală,50A,Gheţari,43.9595523,25.86999
1162,Mihai Viteazu,100,Ghidici,43.8910933,23.1877401
1163,Inv Ion Nicolescu,121,Ghimpeţeni,44.2788798,24.7721279
1164,Principală,73,Ghindeni,44.240956,23.9280279
1165,Principală,327,Ghirbom,46.0326133,23.7214336
1166,Principală,274,Gighera,43.8481755,23.8024277
1167,Principală,205,Gioseni,45.9930915,26.9083512
1168,Școlii,15,Gârcov,43.7581858,24.615284
1169,Principală,1,Gârde,44.2877508,26.1324481
1170,Calea Craiovei,42,Giubega,44.12616879999999,23.4166454
1171,Principală,93A,Giuvărăşti,43.795828,24.6907315
1172,Principală,75,Glod,47.7254665,24.0773161
1173,Principală,1,Godineştii De Jos,46.4183324,27.2283745
1174,Principală,355,Gogoşu,44.3787175,22.513118
1175,Primaverii,73,Gologanu,45.6116042,27.2668388
1176,Principală,278,Golumbu,44.98555959999999,23.8670703
1177,Str. Straubing,20,Goranu,45.1059274,24.3886773
1178,Neda Marinescu,69,Grădinile,43.9458125,24.3914391
1179,Școlii,3,Greci,45.943161,24.96676
1180,Școlii,95,Greci,45.943161,24.96676
1181,Cristache Salcianu,100,Grojdibodu,43.7577823,24.268132
1182,Balșului,44,Vulpeni,44.45182459999999,23.9296035
1183,Principală,76,Grozăveşti,44.13197,24.2233809
1184,Principală,85,Gubaucea,44.2765547,23.345933
1185,Mica,1,Gura Arieşului,46.4334564,23.9546342
1186,Principală,238,Gura Caliţei,45.587713,27.0174333
1187,Filip Marcu,1,Gura Padinii,43.7566965,24.313702
1188,Principală,1,Gura Roşiei,46.307281,23.0619642
1189,Principală,201,Hăpria,46.2237188,24.6921171
1190,Principală,1,Haret,44.2877508,26.1324481
1191,Harnicesti,5,Hărniceşti,47.7856517,23.883452
1192,Principală,1,Hăulişca,45.8785195,26.683034
1193,Principală,124,Heltiu,46.1985342,26.9398832
1194,Principală,1,Hânguleşti,45.5870462,27.4070562
1195,Principală,22,Hopârta,46.3194559,23.8741326
1196,Horb,5,Poienile De Sub Munte,47.82317949999999,24.4479143
1197,Horb,2,Poienile De Sub Munte,47.82317949999999,24.4479143
1198,Nicolae Vasile Ursu,22,Horea,46.5004707,22.949039
1199,Principală,3,Horgeşti,46.4369288,27.0698744
1200,Marinescu Florian,10,Hotaru,45.943161,24.96676
1201,Calea Cetăţii,72,Hunia,44.0548923,23.096935
1202,Principală,2,Huruieşti,46.2531999,27.2450613
1203,Iadara,43,Iadăra,47.4777035,23.3925456
1204,Intrarea Iencii,4,Ianca,45.135609,27.4710022
1205,Intemeierii,4,Ianca Nouă,43.8250489,24.2132237
1206,Principală,50,Ighiel,46.14531969999999,23.4794571
1207,Școlii,32,Ighiu,46.1438947,23.5121564
1208,Principală,1,Întorsura,44.1149786,23.5726651
1209,Ion Nenitescu,12,Galaţi,45.4349308,28.0484067
1210,Milcov,15,Galaţi,45.4488334,28.027146
1211,Principală,51,Meteş,46.100745,23.4117169
1212,Furcenii Vechi,,Furcenii Vechi,,
1213,1 Decembrie 1918,63,Urzicuţa,44.0041839,23.5522336
1214,George Cosbuc,30-34,Galaţi,45.4311569,28.0373259
1215,Principală,93,Ipoteşti,47.6253756,26.2778757
1216,Principală,1,Ireşti,45.963694,26.9688437
1217,Principală,1,Ivănceşti,45.8076907,27.1377983
1218,Bdl. Mihai Viteazul,113,Izbiceni,43.8236515,24.6624337
1219,Principală,51,Izvoare,46.7503115,26.7953247
1220,Păcii,81,Blaj,46.1706539,23.9104427
1221,Constantin Tanase,91,Izvoarele,44.4379147,26.144367
1222,Izvorului,12,Izvoru,44.4259836,24.2511797
1223,Principală,1,Rona De Sus,47.8988976,24.0397747
1224,Principală,35,Jieni,46.2218661,24.7179264
1225,Principală,91,Jilişte,45.5997509,27.2384091
1226,Principală,2,Jitia,45.5874799,26.7454227
1227,Bisericii,36,Jorăşti,45.714182,27.2659004
1228,Calea Unirii,132,Craiova,44.3060227,23.7971906
1229,Drumul Craiovei,66,Lăcriţa Mare,44.2941833,23.9848844
1230,Principală,1,Lacu Lui Baban,45.603299,26.9761819
1231,Principală,1,Lămoteşti,44.271524,26.1492113
1232,Veche,119,Lancrăm,45.987136,23.5574866
1233,Principală,1,Ruscova,47.7956241,24.2912086
1234,Parosi,18A,Leleasca,44.7983729,24.4669765
1235,Școlii,16,Leordoasa,44.5080371,23.4119383
1236,Principală,25,Leorinţ,43.9588373,25.870214
1237,Leotesti,50,Leoteşti,44.36605580000001,24.1496444
1238,Principală,1,Lepşa,46.2214676,24.7154446
1239,Craiovei,60,Leşile,44.4130077,23.7906393
1240,Principală,1,Lespezi,46.15332790000001,27.2405991
1241,Troitei,1690,Leu,44.1935923,24.0043501
1242,Moţilor,2,Alba Iulia,46.0731783,23.5796237
1243,1 Decembrie,5,Botoşani,47.746561,26.663697
1244,Principală,143,Liiceni,44.12340529999999,24.273655
1245,Principală,1,Lipovu,44.1027996,23.6284438
1246,Principală,131,Lişteava,43.8327793,23.9197869
1247,Principală,1416,Lişteava,43.8327793,23.9197869
1248,Rozelor,8,Livada,45.77796379999999,26.9137182
1249,Liveni,,Liveni,,
1250,Segarcea,75,Livezi,44.2332778,23.7878285
1251,Principală,1,Livezile,47.2768695,24.5352402
1252,Principală,186,Livezile,47.2379158,24.5735299
1253,Lebedei,4,Galaţi,45.432156,28.0192135
1254,Republicii,73,Mărăşeşti,45.8753314,27.2235135
1255,Mihail Sadoveanu,8,Locusteni,43.9748636,23.996536
1256,Principală,22,Loman,44.2877508,26.1324481
1257,Principală,60,Lopadea Nouă,46.29201579999999,23.8175113
1258,Lucacesti,4,Lucăceşti,47.5294706,26.1049549
1259,Principală,3,Repedea,47.8332808,24.3974059
1260,Luhei,2,Poienile De Sub Munte,47.82317949999999,24.4479143
1261,Luhei,1,Poienile De Sub Munte,47.82317949999999,24.4479143
1262,Lujana,2,Repedea,47.8332808,24.3974059
1263,Principală,130,Lunca,43.8385416,24.769191
1264,Mare,316,Lunca Mureşului,46.4279417,23.9101084
1265,Principală,10,Luncile,44.2877508,26.1324481
1266,Principală,1,Lupşa,45.9366687,25.296896
1267,Acad.Stefan Berceanu,2,Măceşu De Jos,43.87763710000001,23.7109125
1268,Campia Islaz,12,Craiova,44.3157158,23.7901823
1269,Bibescu,56,Craiova,44.3153196,23.7901359
1270,Principală,1,Măgura,45.5084381,25.3131151
1271,Sperantei,59,Mahriu,45.6667214,26.9641871
1272,Principală,2,Măicăneşti,45.50163939999999,27.4898353
1273,Principală,6,Crasna Vişeului,47.8324798,24.2304808
1274,,274,Malu Mare,,
1275,Principală,54,Mănărade,46.1414415,23.9667461
1276,Principală,1,Mănăstioara,44.6093096,25.4281126
1277,Lacramioarei,3,Mândreşti-Moldova,45.6837344,27.2428583
1278,Principală,106,Marginea,47.8112897,25.817375
1279,Margineni,109,Mărgineni Slobozia,44.5309621,24.555535
1280,Școlii,122,Mărunţei,44.2235762,24.4625296
1281,Ulita,45,Mărtineşti,47.7964111,22.921131
1282,Obrejii,32,Mărtinie,45.7928328,23.609139
1283,Capitan Ion Marza,60A,Mârza,45.943161,24.96676
1284,Matei Basarab,151,Ociogi,44.3192344,24.3475172
1285,Mătișești,1,Mătişeşti,46.5069962,22.9061388
1286,Principală,13,Medveş,44.2877508,26.1324481
1287,Principală,58,Melineşti,44.5797174,23.7037353
1288,Principală,1,Bahnele,45.6432527,26.7305195
1289,Inv. Marin Ionita,272,Mierleştii De Sus,44.3931058,24.5547799
1290,Tecuci,166,Galaţi,45.4398358,28.0314801
1291,Principală,47A,Mihăeşti,45.0186634,24.2433367
1292,Principală,701,Mihalţ,46.1611123,23.7625618
1293,Principală,1,Mihoeşti,46.37018860000001,23.0261399
1294,Principală,77,Milcovu Din Deal,45.6445814,27.2677451
1295,Principală,2,Milcovul,45.6483783,27.2607392
1296,Principală,29,Mirăslău,46.3619891,23.7068884
1297,Vrancei,1,Mirceştii Noi,45.7498613,27.2695951
1298,Aleea Ii Negustorilor,2,Mlecăneşti,44.3803865,23.862275
1299,Principală,38,Mogoş,44.2877508,26.1324481
1300,Mogoşeşti-Satulung,129,Mogoşeşti,44.5574833,24.5218518
1301,Școlii,6,Moruneşti,44.4790745,24.1246851
1302,Școlii,268,Morunglav,44.459617,24.1102958
1303,Principală,1,Motnău,45.993267,26.8457667
1304,Aviatorului,111,Motoci,45.0849659,24.2734605
1305,Principală,178,Movileni,44.363404,24.6453776
1306,Principală,3,Moviliţa,44.605497,26.4779058
1307,Principală,1,Muncei,46.2214676,24.7154446
1308,Principală,696,Muncelu,45.9504556,27.0349483
1309,Principală,1,Muşca,44.2877508,26.1324481
1310,Principală,20,Năneşti,45.5511957,27.5004322
1311,Principală,537,Nedeia,43.84928,23.7970207
1312,Bucovat,76,Craiova,44.316588,23.7806273
1313,Elena Doamna,8,Tecuci,45.8444903,27.4280464
1314,Ioan Dasu Gabroveanu,167,Negoi,43.9134141,23.3608871
1315,Principală,333,Negoieşti,44.8735578,25.9808407
1316,Principală,1,Negrileşti,45.9267827,26.7025403
1317,Rascoala,55,Neicu,45.92003649999999,27.0739054
1318,Principală,5,Poienile De Sub Munte,47.82258940000001,24.4348342
1319,Principală,6,Poienile De Sub Munte,47.82258940000001,24.4348342
1320,Str. Profesor Nicolita Sanda,34,Drăgăşani,44.6619684,24.262591
1321,Craiovei,34,Horezu,44.612405,23.9352429
1322,General Dragalina,22,Nisipuri,44.3109438,23.8068248
1323,Principală,1,Nistoreşti,44.6207709,28.3753725
1324,Școlii,95,Noşlac,46.4069684,23.9330324
1325,Principală,90A,Afumaţi,44.2739808,26.1402534
1326,Avram Iancu,1,Aiud,46.310137,23.716202
1327,Primăverii,15,Alba Iulia,46.069975,23.584819
1328,Gutinului,24,Baia Sprie,47.6623112,23.6953918
1329,Av. P. Ivanovici,1,Băileşti,44.0268817,23.3454049
1330,Tudor Arghezi,269,Bechet,43.7853086,23.9535027
1331,Primăriei,492,Blăgeşti,46.691633,26.6676241
1332,Ion Pillat,26,Botoşani,47.7447372,26.6725353
1333,Primariei,1,Breasta,44.3426177,23.6886025
1334,Principală,173,Buda,45.4959132,26.899599
1335,Tudor Vladimirescu,56,Calafat,43.9900329,22.933082
1336,Plopului,3,Câmpeni,46.3616415,23.0441879
1337,Tuma Rusca,15,Caracal,44.1137716,24.3455006
1338,Dunării,38,Cerăt,44.0649449,23.6690997
1339,Calea Severinului,167,Cetate,44.1058142,23.0501934
1340,Principală,,Cişmea,,
1341,Principală,149,Drăgoeşti,44.5653538,26.5411755
1342,Mădulari,2,Mădulari,44.6722415,24.092145
1343,Cristesti,,Cristeşti,,
1344,Cristinesti,,Cristineşti,,
1345,Curtesti,,Curteşti,,
1346,Nicolae Iorga,8,Dăbuleni,43.7983312,24.0956597
1347,Principală,53,Daneţi,43.9732047,24.055892
1348,Dersca,,Dersca,,
1349,Dimacheni,,Dimăcheni,,
1350,Doarceni,,Dobârceni,,
1351,Dorobanti,,Dorobanţi,,
1352,Draguseni,,Drăguşeni,,
1353,Dumeni,,Dumeni,,
1354,Durnesti,,Durneşti,,
1355,Tudor Vladimirescu,4,Filiaşi,44.550938,23.524654
1356,Calafatului,10,Galicea Mare,44.0979569,23.3088053
1357,Padurii,6,Giurgiţa,44.0148829,23.6219323
1358,Principală,1,Goicea,43.9428555,23.6086275
1359,Gorbanesti,,Gorbăneşti,,
1360,Principală,6,Gura Văii,46.29352859999999,22.3999965
1361,Havarna,,Havârna,,
1362,Hiliseu-Horia,,Hilişeu-Horia,,
1363,Unirii,48,Horezu Poenari,43.96687319999999,23.8735764
1364,Ibanesti,,Ibăneşti,,
1365,Mihai Eminescu,15,Ipoteşti,47.6188238,26.3024042
1366,Lozna,,Lozna,,
1367,Poştei,2,Maglavit,44.0309475,23.1003127
1368,Manoleasa,,Manoleasa,,
1369,Principală,207,Mârşani,44.0118801,24.0137288
1370,Mihaileni,,Mihăileni,,
1371,Mitoc,,Mitoc,,
1372,Mlenauti,,Mlenăuţi,,
1373,Dragalina,"24, 53",Ocna Mureş,46.3865494,23.8489987
1374,Școlii,195,Oituz,46.201259,26.5740257
1375,Principală,11,Târgu Gânguleşti,46.5707095,24.5481811
1376,Principalaşcoala Veche,744,Orbeni,46.263302,27.0199678
1377,Principală,1005,Ostroveni,43.8120653,23.8940374
1378,Protopop Ioan Negoiţă,248,Pănceşti,46.9035383,27.1514458
1379,Henri Coanda,164,Perişor,44.1433323,23.4867486
1380,Gheorghita Geolgau,193,Pieleşti,44.3393157,23.9497348
1381,Principală,1,Pânceşti,46.3542097,27.0961169
1382,Pomarla,,Pomârla,,
1383,Principală,222B,Prapor,44.260762,26.167862
1384,Principală,1,Prohozeşti,44.8372723,25.8516989
1385,Radauti Prut,,Rădăuţi-Prut,,
1386,Rauseni,,Răuşeni,,
1387,Roma,,Roma,,
1388,Principală,305,Sănduleni,46.4496958,26.7364153
1389,Santa Mare,,Santa Mare,,
1390,Plopilor,10,Sărata,46.5113956,26.8559289
1391,Str. Schitului,227,Dobruşa,45.943161,24.96676
1392,Școlii,349,Scurta,45.943161,24.96676
1393,Republicii,92,Segarcea,44.0926739,23.7422208
1394,Stefanesti,,Ştefăneşti,,
1395,Ştiubieni,,Ştiubieni,,
1396,Suharău,,Suharău,,
1397,Talpa,,Talpa,,
1398,Ungureni,,Ungureni,,
1399,Avram Iancu,70,Unirea,46.7667097,23.5931729
1400,Calea Craiovei,25,Urzicuţa,44.0091871,23.5415154
1401,Principală,1,Valea Lui Ion,46.6924782,26.6534497
1402,Arhitect Cezar Lăzărescu,77,Valea Stanciului,43.9850747,23.8764997
1403,Viişoara,,Viişoara,,
1404,Vladeni-Deal,,Vlădeni-Deal,,
1405,Vorniceni,,Vorniceni,,
1406,Vorona Mare,,Vorona Mare,,
1407,Aleea Lalelelor,4,Slatina,44.43101739999999,24.3718118
1408,Copacelu,182,Râmnicu Vâlcea,45.0678764,24.3105915
1409,Industriei,1,Baia Mare,47.66129400000001,23.588448
1410,Bălcescu Nicolae,7,Baia Mare,47.6640483,23.5694964
1411,Bdl A.I.Cuza,37,Slatina,44.4284222,24.3845728
1412,Mihail Strajan,12,Craiova,44.3196147,23.823766
1413,Prunilor,8,Botoşani,47.7195476,26.6986539
1414,Teilor,63,Craiova,44.3321832,23.8226128
1415,Str. Nicolae Titulescu,11,Râmnicu Vâlcea,45.11151270000001,24.3739846
1416,Potelu,2,Craiova,44.2889832,23.7998061
1417,Amza Pellea,30,Băileşti,44.0222315,23.348661
1418,Baranca,,Baranca,,
1419,Bobulesti,,Bobuleşti,,
1420,Nicolae Iorga,18,Botoşani,47.73722799999999,26.662454
1421,Constantin Argetoianu,3,Breasta,44.341268,23.6906989
1422,Dunării,122,Cerăt,44.0649449,23.6690997
1423,Blv Gheorghe Magheru,56,Cetate,44.1112708,23.0441455
1424,Cismanesti,,Cişmăneşti,,
1425,Principală,102,Tetoiu,44.7550143,23.921407
1426,Cuza Vodă,,Cuza Vodă,,
1427,Unirii,1,Darabani,48.1851396,26.6008019
1428,Dumbravita,,Dumbrăviţa,,
1429,Racoteanu,148,Filiaşi,44.552782,23.5236094
1430,Calafatului,12,Galicea Mare,44.0979886,23.3086605
1431,Calea Dunarii,67,Giurgiţa,44.0243301,23.6311502
1432,Guranda,,Guranda,,
1433,Hiliseu-Crisan,,Hilişeu-Crişan,,
1434,Hlipiceni,,Hlipiceni,,
1435,Unirii,160,Horezu Poenari,43.9499151,23.8665308
1436,Mircea Cel Bătrân,13,Maglavit,44.0367593,23.1011797
1437,Miorcani,,Miorcani,,
1438,Calea Unirii,103,Moţăţei,44.093903,23.2016059
1439,Bd. Tudor Vladimirescu,29,Râmnicu Vâlcea,45.1053933,24.3722792
1440,Negreni,,Negreni,,
1441,Nicseni,,Nicşeni,,
1442,N.Iorga,22,Ocna Mureş,46.3830276,23.8596919
1443,Str. Aleea Libertatii,2,Berbeşti,44.9874549,23.8692214
1444,Principală,589,Ostroveni,43.8120653,23.8940374
1445,Henri Coanda,271,Perişor,44.3088587,23.8215665
1446,Gheorghita Geolgau,441,Pieleşti,44.3284144,23.9725171
1447,Podriga,,Podriga,,
1448,Principală,484A,Prapor,45.0468046,25.7701465
1449,Principală,100,Roşiori,46.22062589999999,24.7074489
1450,Jaqures M. Elias,17,Sascut-Sat,46.206,27.106283
1451,Str. Salistea,48,Romanii De Sus,45.1864097,24.0009237
1452,Saveni,,Săveni,,
1453,Republicii,144,Segarcea,44.0916285,23.7363561
1454,Dumitru Corbea,66,Sârbi,45.943161,24.96676
1455,Somes,22,Şomcuţa Mare,47.4989926,23.4757754
1456,Mihai Eminescu,47,Stânceşti,47.771065,26.5946428
1457,Principală,1,Tamaşi,44.2877508,26.1324481
1458,,,Ulmeni,,
1459,Principală,72,Unirea,44.1573581,23.1753958
1460,Arhitect Cezar Lăzărescu,21,Valea Stanciului,43.9759234,23.8726841
1461,Vanatori,,Vânători,,
1462,Vatra,,Vatra,,
1463,Viţcani,,Viţcani,,
1464,Principală,73a,Vladnic,46.44414200000001,27.1378278
1465,Vorona,,Vorona,,
1466,Bucureşti,20,Baia Mare,47.6533344,23.5593439
1467,Lunci,12,Baia Mare,47.7028178,23.6285048
1468,Carpati,48,Băileşti,44.0272,23.3422725
1469,Orbic,250,Buhuşi,46.7513357,26.689771
1470,Iancu Jianu,3,Caracal,44.1113668,24.350986
1471,Mihai Eminescu,35,Cerviceşti,47.7995765,26.5090185
1472,Cerealelor,55,Corabia,43.7822419,24.51082
1473,Panait Istrati,15,Dăbuleni,43.8017117,24.0861687
1474,Dragalina,,Dragalina,,
1475,Joldesti,,Joldeşti,,
1476,Ceramicii,1243,Marginea,47.8112897,25.817375
1477,Târgului,115,Mârşani,44.0172203,23.9998291
1478,Principală,100,Moţăţei,44.093903,23.2016059
1479,Mălinului,4,Ocna Mureş,46.3943583,23.8501156
1480,Principală,1854,Oituz,46.210552,26.6548878
1481,Principală,13,Berbeşti,45.0107969,23.87883
1482,Rediu,,Rediu,,
1483,Prof. Marcel Raicea,25,Valea Stanciului,43.9935811,23.8765674
1484,Principală,,Viişoara Mică,,
1485,Gradinitei,2,Zemeş,46.5290949,26.4675087
1486,8 Martie,5,Baia Mare,47.6689954,23.6156653
1487,Prelungirea Bechetului,3A,Craiova,44.2751379,23.8154041
1488,Popoveni,3,Craiova,44.2955952,23.7914384
1489,Victoriei,45,Băileşti,44.028177,23.34962
1490,22 Decembrie,130,Calafat,43.9881959,22.9313557
1491,Bdl. Nicolae Titulescu,46,Caracal,44.1174982,24.3558286
1492,Calea Severinului,271,Cetate,44.1048182,23.0533708
1493,Victoriei,84,Dăbuleni,43.7995538,24.0783693
1494,Slt S Dumitras,10,Dorohoi,47.9549207,26.4012087
1495,Fundu Hertii,,Fundu Herţii,,
1496,Plopenii Mari,,Plopenii Mari,,
1497,Popeni,,Popeni,,
1498,Silistea,,Siliştea,,
1499,Tunari,9,Slatina,44.4260466,24.3815488
1500,Storesti,,Storeşti,,
1501,Tataraseni,,Tătărăşeni,,
1502,Vişeu De Sus-Oraş,1,Vişeu De Sus,47.7076994,24.4399247
1503,Babiceni,,Băbiceni,,
1504,Horia Cloşca Şi Crişan,27,Băileşti,44.0219622,23.3350857
1505,Prelucata Tarilor,1,Borşa,47.6537683,24.6631517
1506,Aleea Rapsodiei,8,Botoşani,47.7448369,26.658737
1507,Minerului,15,Comăneşti,46.426772,26.414249
1508,Unirii,13,Dăbuleni,43.801206,24.0941666
1509,Lucian Valea,5,Darabani,48.1833663,26.5897705
1510,Horia,21,Dorohoi,47.961157,26.40733
1511,Trandafirilor,19,Moreni,44.9657247,25.6002529
1512,Str. Stirbei Voda,113,Râmnicu Vâlcea,45.105647,24.347108
1513,Zorilor,1,Ocna Mureş,46.3932925,23.8710092
1514,Radeni,,Rădeni,,
1515,Cuza Voda,56,Seini,47.743068,23.2834092
1516,Antiaeriană,55,Slatina,44.4301677,24.3716904
1517,Malinului,5,Vişeu De Sus,47.716297,24.4048289
1518,Zahoreni,,Zahoreni,,
1519,Bradului,84,Buhuşi,46.7184977,26.7009477
1520,Boscoteni,,Boscoteni,,
1521,Principală,1,Broşteni,46.2214676,24.7154446
1522,Unirii,12,Dăbuleni,43.800771,24.0940842
1523,Loturi,,Loturi,,
1524,,,Olteniţa,,
1525,Lucian Blaga,45A,Sebeş,45.9568987,23.5735921
1526,Dragos Voda,244,Sighetu Marmaţiei,47.94275,23.92247
1527,Toamnei,5,Slatina,44.4329002,24.3752875
1528,Zorilor,1,Uioara De Sus,46.3932925,23.8710092
1529,Gheorghe Lazar,17,Aiud,46.3156133,23.6876551
1530,Andrei Mureşanu,72,Uioara De Jos,46.3721755,23.8368604
1531,Gheorghe Lazar,21,Aiud,46.31583,23.687292
1532,Dreptătii,37,Băileşti,44.0140758,23.3491738
1533,Săvenilor,103,Botoşani,47.7573259,26.6821385
1534,Str. Digului,20,Drăgăşani,44.6631799,24.2608712
1535,M. Kogălniceanu,76,Sebeş,45.9691653,23.5576179
1536,Ștrandului,36,Borşa,47.655269,24.6581295
1537,Aleea Infratirii,5,Slatina,44.4333058,24.370465
1538,1 Mai,36,Adjud,46.0914552,27.182824
1539,Principală,34,Bordeasca Veche,45.5130804,27.3257831
1540,Principală,1,Burca,44.2877508,26.1324481
1541,Principală,1,Câmpuri,45.993267,26.8457667
1542,,,Ciocăneşti,,
1543,Bălăbănești,,Bălăbăneşti,,
1544,Bălăşeşti,,Bălăşeşti,,
1545,Băleni,35,Băleni,45.7915115,27.820595
1546,Băneasa,,Băneasa,,
1547,Barcea,,Barcea,,
1548,Beresti-Meria,,Bereşti-Meria,,
1549,Brahasesti,,Brăhăşeşti,,
1550,Branistea,,Braniştea,,
1551,Buciumeni,,Buciumeni,,
1552,Cavadinesti,,Cavadineşti,,
1553,Certesti,,Cerţeşti,,
1554,Corni,,Corni,,
1555,Cosmesti,,Cosmeşti,,
1556,Stefan Cel Mare,247,Cudalbi,45.7738224,27.6852715
1557,Draganesti,,Drăgăneşti,,
1558,Fartanesti,,Fârţăneşti,,
1559,Foltesti,,Folteşti,,
1560,Ghidigeni,,Ghidigeni,,
1561,Gohor,,Gohor,,
1562,Grivita,,Griviţa,,
1563,Independenta,,Independenţa,,
1564,Gen.Al.Tarola,1,Iveşti,45.6776013,27.5213745
1565,Jorsti,,Jorăşti,,
1566,Liesti,,Lieşti,,
1567,Mastacani,,Măstăcani,,
1568,Movileni,,Movileni,,
1569,Eroilor,38,Munteni,45.9287468,27.4418395
1570,Namoloasa,,Nămoloasa,,
1571,Negrilesti,,Negrileşti,,
1572,Nicoresti,,Nicoreşti,,
1573,Nationala,124,Oancea,45.917782,28.109492
1574,Piscu,,Piscu,,
1575,Poiana,,Poiana,,
1576,Priponesti,,Priponeşti,,
1577,Radesti,,Rădeşti,,
1578,Scanteiesti,,Scânteieşti,,
1579,Sendreni,,Şendreni,,
1580,Slobozia Conachi,,Slobozia Conachi,,
1581,Smulti,,Smulţi,,
1582,Suceveni,,Suceveni,,
1583,Suhurlui,,Suhurlui,,
1584,Tepu,,Ţepu,,
1585,T.Vladimirescu,,Tudor Vladimirescu,,
1586,Tulucesti,,Tuluceşti,,
1587,Preot Gh.Gafton,9,Valea Mărului,45.8382394,27.6894051
1588,Varlezi,,Vărlezi,,
1589,Nicolae Titulescu,287,Drăgăneşti-Olt,44.1605868,24.5343478
1590,Principală,1,Fitioneşti,45.993267,26.8457667
1591,Frumusita,,Frumuşiţa,,
1592,Drum National,2D,Găgeşti,45.8560609,27.0536337
1593,Principală,1,Găloieşti,45.993267,26.8457667
1594,Calea Calarasi,106,Grădiştea,44.4330187,26.1189438
1595,Mihail Kogalniceanu,36,Gugeşti,45.56543809999999,27.1282984
1596,Hanesti,,Hăneşti,,
1597,Mihai Eminescu,7,Homocea,46.1358242,27.2381936
1598,Principală,13,Jariştea,45.7929039,27.0571865
1599,Principală,1,Jitia De Jos,45.5686736,26.7822967
1600,1 Decembrie 1918,27,Tecuci,45.8511615,27.4282944
1601,Valea Milcovului,44,Mera,45.78217859999999,26.8540493
1602,Principală,20,Năruja,45.8266007,26.7778506
1603,Principală,1,Nereju,45.7297715,26.6855979
1604,Principală,25,Nereju Mic,45.7297715,26.6855979
1605,Muzicii,11,Bereşti,46.0930355,27.8857608
1606,Principală,1,Paltin,46.2214676,24.7154446
1607,Ioan Slavici,3,Panciu,45.9052467,27.0874687
1608,Centru,2,Păuneşti,46.032097,27.1100094
1609,Iasomiei,10,Perişoru,44.43650969999999,27.5404709
1610,Principală,1,Ploscuţeni,46.0777386,27.2689874
1611,Gheorghe V. Zaharia,20,Popeşti,44.3841434,26.1559458
1612,Romanesti,,Româneşti,,
1613,General Ciocan,4,Rotunda,43.9795105,24.3167204
1614,Adam,,Adam,,
1615,Aldesti,,Aldeşti,,
1616,Balintesti,,Balinteşti,,
1617,Baltareti,,Băltăreţi,,
1618,Gara Berheci,,Gara Berheci,,
1619,Blanzi,,Blânzi,,
1620,General Eremia Grigorescu,103,Buceşti,45.6496139,27.5280054
1621,Bursucani,,Bursucani,,
1622,Calmatui,,Călmăţui,,
1623,Carapcesti,,Cărăpceşti,,
1624,Carlomanesti,,Cârlomăneşti,,
1625,Cauesti,,Căuieşti,,
1626,Chiraftei,,Chiraftei,,
1627,Ciorasti,,Ciorăşti,,
1628,Cismele,,Cişmele,,
1629,Ciureştii Noi,,Ciureştii Noi,,
1630,Coasta Lupei,,Coasta Lupei,,
1631,Cosmesti-Vale,,Cosmeştii-Vale,,
1632,Costi,,Costi,,
1633,Cotoroaia,,Cotoroaia,,
1634,Craiesti,,Crăieşti,,
1635,Cruceanu,,Cruceanu,,
1636,Dobrinesti,,Dobrineşti,,
1637,Fantanele,,Fântânele,,
1638,Fantani,,Fântâni,,
1639,Principală,4,Frunzeasca,45.9190595,27.4225336
1640,Fundeanu,,Fundeanu,,
1641,Furcenii Noi,,Furcenii Noi,,
1642,Ganesti,,Găneşti,,
1643,Gefu,,Gefu,,
1644,Ghinghesti,,Ghingheşti,,
1645,Hanu Conachi,,Hanu Conachi,,
1646,Ionasesti,,Ionăşeşti,,
1647,Izvoarele,,Izvoarele,,
1648,Maciseni,,Măcişeni,,
1649,Malu Alb,,Malu Alb,,
1650,Ivan Mandru,74,Mândreşti,45.943161,24.96676
1651,Moscu,,Moscu,,
1652,Nartesti,,Nărteşti,,
1653,Nicopole,,Nicopole,,
1654,Odaia Manolache,,Odaia Manolache,,
1655,Plesa,,Pleşa,,
1656,Roşcani,,Roşcani,,
1657,Salcia,,Salcia,,
1658,Serbestii Vechi,,Şerbeştii Vechi,,
1659,Sivita,,Şiviţa,,
1660,Slivna,,Slivna,,
1661,Slobozia Blaneasa,,Slobozia Blăneasa,,
1662,Slobozia Corni,,Slobozia Corni,,
1663,Stietesti,,Ştieţeşti,,
1664,Talpigi,,Tălpigi,,
1665,Tamaoani,,Tămăoani,,
1666,Taplau,,Tăplău,,
1667,Costache Conache,14,Ţigăneşti,45.9043971,27.4327037
1668,Toflea,,Toflea,,
1669,Torcesti,,Torceşti,,
1670,Pietroasele,18,Ungureni,45.9098511,27.4702592
1671,Vadeni,,Vădeni,,
1672,Vasile Alecsandri,,Vasile Alecsandri,,
1673,Viile,,Viile,,
1674,Visina,,Vişina,,
1675,Vizuresti,,Vizureşti,,
1676,Zarnesti,,Zărneşti,,
1677,Dobrogeanu Gherea,10,Săveni,47.9525087,26.8527566
1678,Principală,2,Şindrilari,45.7894396,26.889536
1679,Tudor Vladimirescu,24,Slatina,44.4328868,24.3520607
1680,,,Spanţov,,
1681,Sudului,55,Sprâncenata,44.062091,24.6367234
1682,Stauceni,,Stăuceni,,
1683,Principală,1233,Străoane,45.9281407,27.0471731
1684,Scoala Veche,33,Suraia,45.6733834,27.3893258
1685,Umbraresti,,Umbrăreşti,,
1686,Principală,12,Vulcăneasa,45.9645719,26.9676427
1687,Principală,2,Vulturu,45.6197981,27.42268
1688,Grivita,343,Călăraşi,44.189991,27.345007
1689,Aleea Echitatii,33,Focşani,45.677408,27.182921
1690,A.Saligny,130,Galaţi,45.439643,28.025479
1691,Siderurgistilor,17A,Galaţi,45.4326866,28.0240297
1692,Tecuciul Nou,69,Tecuci,45.8675347,27.4229115
1693,Arcului,2,Slatina,44.42630399999999,24.367533
1694,Dogariei,67,Galaţi,45.4363035,28.06006
1695,Cocorasti,1,Tecuci,45.8312831,27.4669129
1696,Zidarilor,5,Galaţi,45.413826,28.0136759
1697,Vailor,14,Slatina,44.41806,24.383275
1698,Mărăşeşti,28,Baia Mare,47.64612289999999,23.5794032
1699,Bulevardul Unirii,2A,Focşani,45.687998,27.185333
1700,Siret,32,Adjud,46.1008832,27.1884023
1701,Oituz,2B,Baia Mare,47.64961770000001,23.5656539
1702,N.Titulescu,32,Balş,44.3517679,24.0945173
1703,Ulita,40,Bordeasca Veche,45.5392265,27.3153768
1704,Principală,2,Burca,45.943161,24.96676
1705,Mihai Eminescu,247,Barcea,45.74548069999999,27.4767067
1706,George Emil Palada,8A,Cudalbi,45.7696512,27.689457
1707,Matca,,Matca,,
1708,Antiaeriană,,Piscu,,
1709,Lt.Fotache Popovici,6,Valea Mărului,45.8254021,27.6839983
1710,Dumitru Buzdun,1,Corabia,43.7741289,24.513011
1711,Calea Calarasi,45,Cuneşti,44.2249254,27.1781008
1712,Principală,2,Fitioneşti,45.9797305,27.0607366
1713,Druma National,2D,Găgeşti,45.8560609,27.0536337
1714,Ion Creanga,23,Gugeşti,45.5712199,27.136548
1715,Leopoldina Balanuta,20,Jariştea,45.7966896,27.0721023
1716,Principală,2,Nereju,45.7297715,26.6855979
1717,Principală,2,Nereju Mic,45.7297715,26.6855979
1718,Principală,2,Paltin,43.9553574,25.8760872
1719,Novacesti,1,Păuneşti,46.0254087,27.1012252
1720,Aleea Florilor,5,Popeşti,45.5934687,27.0897101
1721,Școlii,5,Priseaca,44.5103744,24.4518208
1722,General Eremia Grigorescu,245,Buceşti,45.6613317,27.5254328
1723,Umbraresti Deal,,Umbrăreşti-Deal,,
1724,Sudului,212,Sprâncenata,44.062091,24.6367234
1725,Principală,612,Străoane,45.9281407,27.0471731
1726,Principală,118,Suraia,45.6737331,27.3908745
1727,Tocileni,,Tocileni,,
1728,Școlii,6,Vulcăneasa,45.7733021,26.9079438
1729,Principală,3,Vulturu,45.6199532,27.4230389
1730,Tecuci,160,Galaţi,45.4393305,28.0325045
1731,Anul Revolutiei,18,Galaţi,45.4353208,28.0079945
1732,Dr.Carnabel,7,Galaţi,45.4399759,28.0494516
1733,Ion Roata,2A,Adjud,46.0989251,27.1831395
1734,Victor Ion Popa,51,Iveşti,45.6875702,27.5258526
1735,Cooperatorilor,26,Pechea,45.6163242,27.7896462
1736,Cotirgaci,,Cotârgaci,,
1737,Profesor Caian Dimitrie,9,Focşani,45.6974634,27.1755775
1738,Soarelui,37,Gugeşti,45.5766641,27.1283097
1739,1 Decembrie 1918,39,Tecuci,45.8464501,27.4300765
1740,Garoafei,17,Mărăşeşti,45.8737897,27.216922
1741,Principală,3,Nereju,45.7297715,26.6855979
1742,Principală,3,Nereju Mic,45.7297715,26.6855979
1743,Libertatii,163,Odobeşti,45.7531355,27.0792166
1744,Calea Calarasi,92,Rasa,44.43321,26.117722
1745,Principală,1,Şindrilari,45.993267,26.8457667
1746,Cazarmii,29,Slatina,44.4253267,24.3601406
1747,Nufarului,3,Galaţi,45.4425579,28.0293271
1748,Dunarea,60,Galaţi,45.4095249,28.0174971
1749,Suhurlui,100,Pechea,45.5861849,27.7771254
1750,1 Mai,60,Corabia,43.788017,24.500258
1751,Alexandru Sahia,2,Focşani,45.7043033,27.1866657
1752,Stefan Cel Mare,2,Oreavu,45.5903641,27.1477396
1753,Podoleni,,Podoleni,,
1754,Libertatii,379,Unirea,44.2532361,27.5875239
1755,Constructorilor,21,Galaţi,45.4321102,28.028657
1756,Gorunului,6,Galaţi,45.4244655,28.0139849
1757,Brailei,184,Galaţi,45.42169,28.020941
1758,Independentei,22,Călăraşi,44.2441128,26.8780608
1759,Chiscareni,,Chişcăreni,,
1760,Stefan Cel Mare,12,Focşani,45.6975311,27.1807021
1761,Oviidiu,10,Galaţi,45.4282036,28.0455775
1762,Unirii,6,Tecuci,45.846688,27.433885
1763,Baraganului,26,Călăraşi,44.2073449,27.3184235
1764,Biruinţei,8,Oarda,46.03638429999999,23.5623062
1765,Principală,5,Oarţa De Jos,47.4584071,23.132125
1766,Argetoaiei,69,Obedin,44.3039425,23.792436
1767,Mihai Eminescu,39,Obârşia Nouă,43.8847057,24.3206295
1768,Principală,321,Oboga,44.42412119999999,24.0895876
1769,Principală,190,Obreja,45.4491325,22.2988711
1770,Școlii,366,Obrejiţa,45.5011366,27.0881179
1771,Principală,1,Ocna Şugatag,47.7483674,23.9015183
1772,Principală,164,Ocoliş,47.6173311,23.6084236
1773,Principală,204C,Ocolna,43.8787399,24.1345204
1774,Principală,300,Ohaba,47.2031752,27.3827783
1775,Principală,302,Oiejdea,46.1579061,23.6331692
1776,M. Eminescu,138,Olari,45.943161,24.96676
1777,Principală,1,Oleşeşti,45.993267,26.8457667
1778,Principală,241,Oporelu,44.60377440000001,24.4238491
1779,Str. Dragos Vranceanu,210,Băbeni,44.9759881,24.2345003
1780,Str. Sfatului,16A,Prajila,45.0808885,24.1777258
1781,Str. Prof. Dr. Gh. Olănescu,40,Olăneşti,45.2048424,24.2399297
1782,Str. Eroilor,44,Brezoi,45.3334692,24.2665576
1783,,,Oreviţa Mare,,
1784,Școlii,11,Orlea,43.7503713,24.3725614
1785,Sfantul Nicolae,496,Orodel,44.2427944,23.2457924
1786,Școlii,11,Osica De Jos,44.2433362,24.2772074
1787,Antiaeriană,17,Osica De Sus,44.2553267,24.3179338
1788,Carpenului,133,Pâclişa,46.046292,23.5234603
1789,Invatator Dumitru Ghe. Popa,5,Pădureni,45.5973596,21.2123158
1790,Principală,1,Parava,44.2877508,26.1324481
1791,Eroilor,56,Păuleşti,45.891493,26.6874766
1792,Unirii,31,Păuleşti,45.0176297,25.9472204
1793,Inv.Gheorghe Linca,53,Perieţi,44.5626261,27.2370813
1794,Vladesti,,Vlădeşti,,
1795,Petru Dobra,8,Zlatna,46.1122781,23.2212856
1796,Principală,,Costeşti,,
1797,1 Mai,68,Petreşti,45.9213773,23.5622206
1798,Horea,168,Pianu De Jos,45.931293,23.4895499
1799,Principală,78,Pianu De Sus,45.9053678,23.4747941
1800,Principală,128,Piatra,43.8149131,25.1648049
1801,Traian,154,Piatra,44.3603212,24.2943647
1802,Primaverii,21,Pietriş,45.943161,24.96676
1803,Principală,45,Pirita,46.1369962,23.158174
1804,Morii,118,Pîrşcoveni,44.2878639,24.2412331
1805,Ion Florescu,78,Piscu Nou,43.9251826,23.1756885
1806,Principală,10,Piscu Sadovei,43.87704249999999,23.9369644
1807,Tudor Vladimirescu,108,Piscu Vechi,43.8959883,23.1635385
1808,Dunarii,11,Pisculeţ,43.8510972,23.1465207
1809,Aeroportului,118,Cârcea,44.274578,23.8974933
1810,Str. Garii,2,Ocniţa,45.0880677,24.2750849
1811,Principală,101,Pituluşa,45.767166,27.0122952
1812,Izlaz,4,Plăviceni,44.7679522,24.8796972
1813,Lalelelor,27,Pleniţa,44.2192075,23.1890393
1814,Brânzănesti,2,Pleşoi,44.3528904,23.5304869
1815,M.Eminescu,81,Pleşoiu,44.5471157,23.5237936
1816,C.S. Nicolaescu,64,Plopşor,44.2502394,23.4117206
1817,Principală,1,Ieud,47.6937078,24.2548055
1818,Principală,1,Plopu,46.2214676,24.7154446
1819,Principatele Unite,42,Plosca,44.4228546,26.0987582
1820,Principală,1,Ploştina,44.2877508,26.1324481
1821,Manastirii,46,Mera,45.7656965,26.9318151
1822,Principală,32,Podu Nărujei,45.8189039,26.7578218
1823,Principală,66-68,Poganu,44.6599621,24.3186154
1824,Principală,1,Poiana,44.2877508,26.1324481
1825,Pinului,29,Poiana Cristei,45.5805422,27.0566394
1826,Principală,226,Poiana Sărată,46.1423072,26.4561208
1827,Poiana Vadului,27C,Poiana Vadului,46.3983543,22.8795192
1828,Principală,1,Poieniţa,45.100515,25.2944603
1829,Principală,1,Ponorel,46.3677775,22.9719015
1830,Popa Lupu,45,Sighetu Marmaţiei,47.9313471,23.9005421
1831,Principală,1,Popeşti,44.9889338,24.3992802
1832,Școlii,5,Popeşti,44.3790618,26.169015
1833,Principală,237,Poşaga De Jos,46.430627,23.4384706
1834,Valea Dunarii,54,Potelu,43.7630984,24.2039978
1835,Mihai Viteazul,90,Potlogeni,43.877652,24.6307668
1836,Cetatii,76,Potmelţu,44.4103308,23.6484638
1837,Principală,8,Poienile De Sub Munte,47.82258940000001,24.4348342
1838,Principală,1,Prahuda,45.7874422,26.7638583
1839,Principală,1,Prăjeşti,46.6516551,26.9798269
1840,Principală,266,Pralea,44.8372723,25.8516989
1841,Trandafirilor,99,Preajba,44.953159,23.5138426
1842,Principală,125,Preajba De Pădure,44.1947091,24.2200363
1843,Lacramioarelor,2,Predeşti,44.3331188,23.829877
1844,Bucecea,,Bucecea,,
1845,Unirii Principatelor,29,Cuza Vodă,45.5962716,27.7915505
1846,Cosula,,Coşula,,
1847,Ion Tuculescu,2,Craiova,44.3122512,23.8381288
1848,Strada,216,Mândreşti,45.943161,24.96676
1849,Lunca,,Lunca,,
1850,Principală,1,Glăvile,44.8183838,24.1330533
1851,Decebal,28,Teiuş,46.2052977,23.6766085
1852,Tudor Vladimirescu,83,Proaspeţi,44.459874,24.336098
1853,Mihai Viteazul,56,Brădeşti,44.49346860000001,23.6209035
1854,Principală,230,Prunet,44.9924283,23.8711125
1855,Strada Mare,82,Pufeşti,46.0006946,27.2041281
1856,Putuk Pulschi,1,Poienile De Sub Munte,47.82317949999999,24.4479143
1857,Victoriei,1,Puţuri,44.8584423,24.8705624
1858,Garii,231,Răcăciuni,46.3308091,27.0094128
1859,Principală,29,Răchita,44.2877508,26.1324481
1860,Principală,1,Răchitaşu,45.7304018,26.8082895
1861,Principală,1,Răchitosu,45.993267,26.8457667
1862,Principală,1,Răcoasa,45.9914757,26.8841897
1863,Florilor,30,Racoviţa,45.0747757,24.3845416
1864,Strada Codrului,66,Racoviţa,44.5186352,23.4376992
1865,Principală,1,Rădăcineşti,46.2214676,24.7154446
1866,Principală,22,Rădeşti,46.0926455,27.8017769
1867,Calafatului,76,Radovan,44.1595358,23.6011515
1868,George Cosbuc,14,Răduleşti,45.156155,26.806294
1869,Principală,245,Răhău,45.9045067,23.6206436
1870,Craiovei,14,Sadova,47.5658365,25.4736422
1871,Dunarii,136,Rast,43.8850788,23.287022
1872,Principală,1,Răstoaca,44.271524,26.1492113
1873,Școlii,392,Războieni-Cetate,47.2163906,27.0494728
1874,Școlii,6,Recea,47.6335262,23.5061613
1875,Principală,86,Reciu,45.8398226,25.9229125
1876,Trandafirilor,21,Redea,44.0542607,24.2983159
1877,Principală,239,Remeţi,46.8448139,22.652832
1878,Principală,1,Remeţi Pe Someş,47.4798689,23.3403583
1879,Ștefan Cel Mare,30,Reşca,44.1709206,24.3895884
1880,Principală,170,Râmetea,46.22282250000001,24.6950515
1881,Principală,1,Râmniceni,45.993267,26.8457667
1882,Dispensarului,1,Robăneştii De Jos,44.3116831,24.0154167
1883,Principală,459,Rojişte,44.0669651,23.9391599
1884,Școlii,282,Roşia De Secaş,46.0567112,23.8866683
1885,Principală,188,Roşia Montană,46.3033176,23.1163134
1886,Principală - Sat Roșienii Mari,77B,Roşienii Mari,44.2432153,24.2470968
1887,Principală,1,Rotileştii Mari,46.0360096,26.7402368
1888,Principală,1,Rucăreni,44.2877508,26.1324481
1889,Principală,1,Rugineşti,46.0713296,27.1338685
1890,Principală,22,Rusăneşti,43.9571129,25.8726582
1891,Principală,1,Ruşi-Ciutea,46.5240513,26.9563997
1892,Principală,1,Săbişa,44.2877508,26.1324481
1893,Stejarului,1,Sadova,43.9006614,23.9372018
1894,Principală,1,Sahastru,45.7266746,26.6887254
1895,Omorna De Sus,57,Salcia,45.943161,24.96676
1896,Principală,92,Sălciua De Jos,46.3987796,23.4207217
1897,A.I.Cuza,118,Sălcuţa,44.2453722,23.4420498
1898,David Prodan,337,Săliştea,45.9074384,23.3957206
1899,Deal,11,Săliştea-Deal,45.90077369999999,23.4236247
1900,Principală,10,Vima Mică,47.4081252,23.7070222
1901,Tudor Vladimirescu,14,Sâncel,46.2024482,23.9428855
1902,Blajului,102,Sântimbru,46.1363686,23.6510862
1903,Școlii,33,Sărata,43.7732975,24.0322378
1904,Principală,147,Sărbătoarea,44.9967113,23.8738147
1905,Principală,387,Şard,44.2577153,26.1799479
1906,Principală,380D,Săsciori,45.8915553,23.559796
1907,Andreești,6,Andreieşti,44.7825813,23.5394011
1908,Principală,155,Armăşeşti,44.7511555,26.5807976
1909,Atârnați,47,Cornet,43.927024,24.4086608
1910,Băbeni Olltețu Vale,55,Băbeni-Olteţu,44.6170953,23.9797873
1911,Principală,1,Balota,44.2877508,26.1324481
1912,Principală,31,Barcanele,45.0909387,24.1249907
1913,Principală,106,Băroiu,44.8372723,25.8516989
1914,Str. Bârsoiu,249,Bârsoiu,44.8813213,24.345735
1915,Principală,93,Barza,45.038888,24.3616
1916,Principală,73,Bârzeşti,44.8356564,25.853245
1917,Str. Florilor,6,Bătăşani,44.68249309999999,23.9910449
1918,Str. Mihai Viteazu,52,Beneşti,44.6598492,23.9045153
1919,,,Bercioiu,,
1920,Str. Școlii,2,Bârseşti,45.9110446,26.7405828
1921,Str. Arnotei,55,Bistriţa,47.1224442,24.4645322
1922,Principală,5,Câinenii Mari,45.4946542,24.3006091
1923,Valea Satului,35,Câinenii Mici,45.4952771,24.3089165
1924,Str. Tudor Vladimirescu,292,Călina,44.6670313,24.2593405
1925,Principală,25,Cârstăneşti,45.0535146,24.0324088
1926,Str. Primăverii,9,Casa Veche,44.868145,24.3195156
1927,Str. Cheia,80,Cheia,45.460395,25.941065
1928,Principală,61,Cioboţi,44.8372723,25.8516989
1929,Ciocâltei,106,Ciocâltei,44.9380956,24.0740014
1930,Principală,1,Cireşu,44.7606096,25.0354546
1931,Str. Rudăreasa,8,Ciungetu,45.3870306,23.9488637
1932,Principală,172,Colteşti,46.4223779,23.5612016
1933,Principală,1,Copăceni,44.25555629999999,26.0961534
1934,Cueni,142,Cueni,44.8922941,24.0777188
1935,Principală,56,Dăeşti,45.205355,24.3901433
1936,Dezrobiți,,Dezrobiţi,,
1937,Str. Caminului,2,Dobriceni,45.1610285,24.1387798
1938,Principală,98,Fişcălia,44.2877508,26.1324481
1939,Principală,4,Foleştii De Sus,45.0917098,24.0579135
1940,Fumureni,1262,Fumureni,44.6194952,24.1553877
1941,Str. Gănești,1,Găneşti,46.3336531,24.3588403
1942,Principală,149,Geamăna,44.8196831,24.889899
1943,Geamăna,82,Geamăna,44.822944,24.8963435
1944,Genuneni,,Genuneni,,
1945,Calea Lungă,85,Grebleşti,45.4758318,24.3125725
1946,,,Greci,,
1947,Principală,47,Gura Văii,46.29352859999999,22.3999965
1948,,,Gurişoara,,
1949,,,Hotărasa,,
1950,Principală,38,Igoiu,44.8372723,25.8516989
1951,Principală,80,Izvoru Rece,44.4990955,25.0565193
1952,Str. Ion Luca Caragiale,10,Jiblea Nouă,45.2215879,24.354409
1953,Str. Gării,10,Jiblea Veche,45.2362165,24.3560797
1954,Lăunele De Jos,1,Lăunele De Jos,44.8824089,24.4469766
1955,Principală,5,Linia,44.2877508,26.1324481
1956,Str. Calea Lui Traian,2,Lunca,45.2099831,24.3679613
1957,Principală,131,Mădulari,44.8372723,25.8516989
1958,Principală,164,Marcea,44.997615,23.874103
1959,Principală,89,Mariţa,44.2877508,26.1324481
1960,,,Mileşti,,
1961,Principală,95,Mlăceni,45.3819305,24.4346307
1962,Principală,129,Modoia,44.9736924,24.0554068
1963,Principală,24,Mologeşti,44.8372723,25.8516989
1964,Principală,7,Muereasca De Sus,45.1923369,24.3078155
1965,Principală,52,Nenciuleşti,43.9598147,25.8694636
1966,Obislavu,37,Obislavu,44.9024991,23.7988632
1967,Str. Calea Lui Traian,55,Olteni,45.943161,24.96676
1968,Str. Căpitan Grigore Otetelișanu,111,Otetelişu,44.63808700000001,23.9579929
1969,Str. Oveselu,67,Oveselu,44.7518352,24.0129962
1970,Principală,1,Pârâienii De Jos,44.8023811,23.8265835
1971,Principală,13,Poiana,43.9576971,25.8716399
1972,Principală,2,Popeşti,47.15312979999999,27.2123436
1973,,,Româneşti,,
1974,Str. Români,63,Români,44.9732399,24.211284
1975,Str. Manastirii,101,Romanii De Jos,45.1584252,24.0062094
1976,Rotărăști,42,Rotărăşti,44.9954074,24.4415592
1977,Calea Lui Traian,144A,Sânbotin,45.1912623,24.3732298
1978,,,Săruleşti,,
1979,Principală,24,Spinu,44.2877508,26.1324481
1980,Principală,207,Ţepeşti,44.8037483,23.9202762
1981,Tepșenari,45,Tepşenari,45.0171134,24.4766486
1982,Principală,1,Tina,44.2877508,26.1324481
1983,,,Turceşti,,
1984,Țuțuru,178,Ţuţuru,44.911485,23.7860021
1985,Udrești,33,Udreşti,45.1153474,26.2843452
1986,,,Ulmetu,,
1987,Str. Ursani,12,Urşani,45.1797928,23.954152
1988,Principală,94,Urşi,44.2877508,26.1324481
1989,Urși,114,Urşi,45.943161,24.96676
1990,Principală,182,Uşurei,44.6335944,24.0896756
1991,Principală,85,Valea Cheii,44.2877508,26.1324481
1992,Principală,45,Valea Lui Stan,45.34966319999999,24.1955594
1993,Str. Dejului,1,Valea Mare,45.7691849,26.0150664
1994,Principală,44,Valea Văleni,45.943161,24.96676
1995,,,Veţelu,,
1996,Principală,1,Zgubea,44.9193497,23.9007818
1997,Z.Stancu,2,Vădăstriţa,43.8372845,24.348553
1998,Progresului,34,Satu Nou,45.8909254,27.0888858
1999,Principală,1,Groşi,47.6061667,23.5603126
2000,S Atu Nou De Sus,149,Satu Nou De Sus,47.6391138,23.6301161
2001,Potgoriilor,5,Slatina,44.4597778,24.3889462
2002,Inv. Ghidurea Eugenia,20,Satu Nou,45.943161,24.96676
2003,Sălsig,399,Sălsig,47.5169495,23.3003865
2004,Principală,223,Scăeşti,44.4624731,23.5628678
2005,Magura,4,Scânteia,45.8240294,27.0250261
2006,Grădinitei,1,Scărişoara,43.991633,24.5673635
2007,Principală,194,Scărişoara,43.9933896,24.5718904
2008,Inaltă,51,Schitu,44.1417145,25.837909
2009,Str. Scolii,11,Slătioarele,45.0828199,24.2579777
2010,Primăriei,15,Seaca,45.076429,25.436461
2011,Ion Florescu,78,Seaca De Câmp,43.9327763,23.2186613
2012,Principală,218,Sebeşel,45.8915553,23.559796
2013,Principală,1,Secu,44.2877508,26.1324481
2014,Eroilor,70,Secui,46.73865319999999,23.4794075
2015,Principală,1,Şerbăneşti,44.601833,24.243738
2016,Dumitru Caracostea,13,Şerbăneştii De Sus,44.3412394,24.6773638
2017,Principală,1,Şerbeşti,45.9207707,26.9733312
2018,Principală,37,Şeuşa,46.060635,23.6246203
2019,Câmpia Izlaz,37,Craiova,44.3163128,23.789022
2020,Smardan,,Smârdan,,
2021,Eroilor,4,Nicolae Bălcescu,46.4755658,26.9157226
2022,Cuca,,Cuca,,
2023,Grigore Olaru,60,Sfârcea,46.21334239999999,23.3121575
2024,Eroilor,7,Vânători,45.5305085,28.0144277
2025,Doctor Babeş Victor,34B,Baia Mare,47.6628331,23.5541672
2026,Viitor,84,Călăraşi,44.1975895,27.3292577
2027,Principală,150,Şibot,45.9394439,23.3341583
2028,Sieu,1,Şieu,47.0000723,24.6065717
2029,Alecu Sihleanu,33,Sihlea,45.5019679,27.1195669
2030,Gării,2,Siliştea Crucii,44.0446755,23.4746041
2031,Principală,1,Silivaş,44.2877508,26.1324481
2032,Principală,1,Dumbrăviţa,45.7974796,21.2390768
2033,Principală,1,Sârbi,47.1794872,22.142062
2034,Maresal Averescu,65,Siretu,45.882874,27.23461
2035,Principală,1,Şişcani,45.943161,24.96676
2036,Nifor Criveanu,2A,Slătioara,44.4092473,24.3248582
2037,Gradinitei,5,Slăveni,44.0850109,24.526598
